{
  "country": "India",
  "total_hospitals": 1362,
  "source": "Merged from HospitalsInIndia.csv + Goa hospital coordinates data",
  "notes": "Coordinates are city-level approximations for CSV-sourced hospitals. Phone numbers from CSV hospitals are null (not available in source data). Goa hospitals retain original detailed data.",
  "hospitals": [
    {
      "name": "Goa Medical College & Hospital",
      "type": "Government Hospital",
      "city": "Bambolim",
      "district": "North Goa",
      "phone": "0832-2458700",
      "lat": 15.4589,
      "lng": 73.8478,
      "pincode": "403202",
      "state": "Goa"
    },
    {
      "name": "Hospicio Hospital",
      "type": "Government Hospital",
      "city": "Margao",
      "district": "South Goa",
      "phone": "0832-2733601",
      "lat": 15.2748,
      "lng": 73.9573,
      "pincode": "403601",
      "state": "Goa"
    },
    {
      "name": "South Goa District Hospital",
      "type": "Government Hospital",
      "city": "Margao",
      "district": "South Goa",
      "phone": "0832-2715100",
      "lat": 15.276,
      "lng": 73.958,
      "pincode": "403601",
      "state": "Goa"
    },
    {
      "name": "Asilo Hospital",
      "type": "Government Hospital",
      "city": "Mapusa",
      "district": "North Goa",
      "phone": "0832-2262372",
      "lat": 15.5929,
      "lng": 73.8091,
      "pincode": "403507",
      "state": "Goa"
    },
    {
      "name": "North Goa District Hospital",
      "type": "Government Hospital",
      "city": "Panaji",
      "district": "North Goa",
      "phone": "0832-2225540",
      "lat": 15.4989,
      "lng": 73.8278,
      "pincode": "403001",
      "state": "Goa"
    },
    {
      "name": "Primary Health Centre Panaji",
      "type": "Primary Health Centre",
      "city": "Panaji",
      "district": "North Goa",
      "phone": "0832-2224737",
      "lat": 15.498,
      "lng": 73.8302,
      "pincode": "403001",
      "state": "Goa"
    },
    {
      "name": "Community Health Centre Valpoi",
      "type": "Community Health Centre",
      "city": "Valpoi",
      "district": "North Goa",
      "phone": "0832-2374233",
      "lat": 15.5332,
      "lng": 74.1334,
      "pincode": "403506",
      "state": "Goa"
    },
    {
      "name": "Sub District Hospital Ponda",
      "type": "Government Hospital",
      "city": "Ponda",
      "district": "North Goa",
      "phone": "0832-2312204",
      "lat": 15.4027,
      "lng": 74.0142,
      "pincode": "403401",
      "state": "Goa"
    },
    {
      "name": "Rural Hospital Bicholim",
      "type": "Rural Hospital",
      "city": "Bicholim",
      "district": "North Goa",
      "phone": "0832-2360233",
      "lat": 15.5931,
      "lng": 73.9595,
      "pincode": "403504",
      "state": "Goa"
    },
    {
      "name": "ESI Hospital Margao",
      "type": "Government Hospital",
      "city": "Margao",
      "district": "South Goa",
      "phone": "9822588424",
      "lat": 15.2732,
      "lng": 73.9585,
      "pincode": "403601",
      "state": "Goa"
    },
    {
      "name": "Goa Dental College & Hospital",
      "type": "Government Hospital",
      "city": "Panaji",
      "district": "North Goa",
      "phone": "0832-2458728",
      "lat": 15.4601,
      "lng": 73.8489,
      "pincode": "403202",
      "state": "Goa"
    },
    {
      "name": "Rural Hospital Canacona",
      "type": "Rural Hospital",
      "city": "Canacona",
      "district": "South Goa",
      "phone": "0832-2643223",
      "lat": 15.0147,
      "lng": 74.0436,
      "pincode": "403702",
      "state": "Goa"
    },
    {
      "name": "Sub District Hospital Quepem",
      "type": "Government Hospital",
      "city": "Quepem",
      "district": "South Goa",
      "phone": "0832-2662231",
      "lat": 15.2124,
      "lng": 74.0709,
      "pincode": "403705",
      "state": "Goa"
    },
    {
      "name": "Apollo Victor Hospital",
      "type": "Private Hospital",
      "city": "Margao",
      "district": "South Goa",
      "phone": "0832-2705000",
      "lat": 15.2756,
      "lng": 73.9561,
      "pincode": "403601",
      "state": "Goa"
    },
    {
      "name": "Manipal Hospital Goa",
      "type": "Private Hospital",
      "city": "Panaji",
      "district": "North Goa",
      "phone": "0832-2220000",
      "lat": 15.4934,
      "lng": 73.8223,
      "pincode": "403001",
      "state": "Goa"
    },
    {
      "name": "A A Hospital",
      "type": "Hospital",
      "city": "Hosur",
      "district": "Hosur",
      "state": "Tamilnadu",
      "phone": null,
      "lat": 12.7409,
      "lng": 77.8253,
      "pincode": "635110",
      "address": "Denkani Kottai Road Mathigiri"
    },
    {
      "name": "A C Hospital",
      "type": "Hospital",
      "city": "Chennai",
      "district": "Chennai",
      "state": "Tamilnadu",
      "phone": null,
      "lat": 13.0827,
      "lng": 80.2707,
      "pincode": "600023",
      "address": "No-8, 3Rd Main Road, United India Nagar, Ayanavaram, Chennai-600023"
    },
    {
      "name": "A-Care Orthopaedic & General Hospital",
      "type": "Hospital",
      "city": "Mumbai",
      "district": "Mumbai",
      "state": "Maharashtra",
      "phone": null,
      "lat": 19.076,
      "lng": 72.8777,
      "pincode": "401107",
      "address": "G-1, Giriraj Tower, Sai Baba Nagar, Mira Bhayander Road, Mira Road."
    },
    {
      "name": "A-One Hospital Pvt Ltd",
      "type": "Hospital",
      "city": "Delhi",
      "district": "Delhi",
      "state": "Delhi",
      "phone": null,
      "lat": 28.6139,
      "lng": 77.209,
      "pincode": "110063",
      "address": "A-1/7, Panchim Vihar, Rohtak Road, New Delhi-110063"
    },
    {
      "name": "A.B.Eye Institute",
      "type": "Hospital",
      "city": "Patna",
      "district": "Patna",
      "state": "Bihar",
      "phone": null,
      "lat": 25.5941,
      "lng": 85.1376,
      "pincode": "800016",
      "address": "Road No.12, Rajendra Nagar, Patna, Bihar-800016"
    },
    {
      "name": "A.C. Hospital",
      "type": "Hospital",
      "city": "Salem",
      "district": "Salem",
      "state": "Tamilnadu",
      "phone": null,
      "lat": 11.6643,
      "lng": 78.146,
      "pincode": "636001",
      "address": "201,2Nd Agraharam"
    },
    {
      "name": "A.G. Eye Care Hospitals (U Nit Of Dr. A.G. Eye Hospitals Private Limited",
      "type": "Hospital",
      "city": "Chennai",
      "district": "Chennai",
      "state": "Tamilnadu",
      "phone": null,
      "lat": 13.0827,
      "lng": 80.2707,
      "pincode": "600004",
      "address": "No. 106, R.K. Mutt Road. Mylapore, Chennai, Tamilnadu"
    },
    {
      "name": "A.G. Hospital",
      "type": "Hospital",
      "city": "Coimbatore",
      "district": "Coimbatore",
      "state": "Tamilnadu",
      "phone": null,
      "lat": 11.0168,
      "lng": 76.9558,
      "pincode": "641601",
      "address": "34, Kpn Colony 3Rd Street, Tirupur"
    },
    {
      "name": "A.G. Padmavati'S Hospital Ltd.",
      "type": "Hospital",
      "city": "Pondicherry",
      "district": "Pondicherry",
      "state": "Tamilnadu",
      "phone": null,
      "lat": 11.9416,
      "lng": 79.8083,
      "pincode": "605110",
      "address": "R.S. No.127/A, Villianur Main Road, Arumparthapuram, Puducherry"
    },
    {
      "name": "A.J. Hospital",
      "type": "Hospital",
      "city": "Trivandrum",
      "district": "Trivandrum",
      "state": "Kerala",
      "phone": null,
      "lat": 8.5241,
      "lng": 76.9366,
      "pincode": "695582",
      "address": "Kazhakuttam, P.O., Thiruvananthapuram, Trivandrum-695582"
    },
    {
      "name": "A.J. Hospital & Research Centre",
      "type": "Hospital",
      "city": "Mangalore",
      "district": "Mangalore",
      "state": "Karnataka",
      "phone": null,
      "lat": 12.9141,
      "lng": 74.856,
      "pincode": "575004",
      "address": "Kuntikan, Mangalore, Dakshina Kannada-575004, Opp. Ksrtc Depot.Kuntikana"
    },
    {
      "name": "A.K.G. Surgical Centre",
      "type": "Hospital",
      "city": "Aligarh",
      "district": "Aligarh",
      "state": "Uttar Pradesh",
      "phone": null,
      "lat": 27.8974,
      "lng": 78.088,
      "pincode": "202001",
      "address": "# 225, Avas Vikas Colony,Masoodabad Chouraha Gt Roadmasoodabad Chouraha,G.T.Road,"
    },
    {
      "name": "A.M. Hospital",
      "type": "Hospital",
      "city": "Bangalore",
      "district": "Bangalore",
      "state": "Karnataka",
      "phone": null,
      "lat": 12.9716,
      "lng": 77.5946,
      "pincode": "560040",
      "address": "# 20/1, 2Nd Cross, Widia Layout, Vijayanagar, Bangalore"
    },
    {
      "name": "A.M. Hospital",
      "type": "Hospital",
      "city": "Cochin",
      "district": "Cochin",
      "state": "Kerala",
      "phone": null,
      "lat": 9.9312,
      "lng": 76.2673,
      "pincode": "690518",
      "address": "N.H. 47, Karunagapally"
    },
    {
      "name": "A.N. Beach Hospital",
      "type": "Hospital",
      "city": "Vizag",
      "district": "Vizag",
      "state": "Andhra Pradesh",
      "phone": null,
      "lat": 17.6868,
      "lng": 83.2185,
      "pincode": "530002",
      "address": "15-9-13/24, Krishna Nagar,Near Beach Road, Visakhapatnam, Andhra Pradesh"
    },
    {
      "name": "A.N.N Hospital",
      "type": "Hospital",
      "city": "Chennai",
      "district": "Chennai",
      "state": "Tamilnadu",
      "phone": null,
      "lat": 13.0827,
      "lng": 80.2707,
      "pincode": "600087",
      "address": "81-85,Annai Therasa Street,Valasaravakkam"
    },
    {
      "name": "A.P.Hospital",
      "type": "Hospital",
      "city": "Amritsar",
      "district": "Amritsar",
      "state": "Punjab",
      "phone": null,
      "lat": 31.634,
      "lng": 74.8723,
      "pincode": "143001",
      "address": "Ajitnagar Chowk,Near Sultan Wind Water Tank"
    },
    {
      "name": "A.P.Varkey Mission Hospital",
      "type": "Hospital",
      "city": "Ernakulam",
      "district": "Ernakulam",
      "state": "Kerala",
      "phone": null,
      "lat": 9.9816,
      "lng": 76.2999,
      "pincode": "682313",
      "address": "Arakunnam P.O. Thottapady."
    },
    {
      "name": "A.R.Hospital Pvt Ltd",
      "type": "Hospital",
      "city": "Madurai",
      "district": "Madurai",
      "state": "Tamilnadu",
      "phone": null,
      "lat": 9.9252,
      "lng": 78.1198,
      "pincode": "625020",
      "address": "609, K.K.Nagar, Madurai-625020"
    },
    {
      "name": "A.U.S. Clinic & Lithotripsy Centre",
      "type": "Hospital",
      "city": "Mumbai",
      "district": "Mumbai",
      "state": "Maharashtra",
      "phone": null,
      "lat": 19.076,
      "lng": 72.8777,
      "pincode": "400034",
      "address": "Arun Chambers, Tardeo, Mumbai-400034Tardeo"
    },
    {
      "name": "A.V. Hospitals",
      "type": "Hospital",
      "city": "Chennai",
      "district": "Chennai",
      "state": "Tamilnadu",
      "phone": null,
      "lat": 13.0827,
      "lng": 80.2707,
      "pincode": "600021",
      "address": "# 172, Solaiappan Street, Tondirepet (North Chennai) Near Maharani Theatre"
    },
    {
      "name": "A.V.Da Costa Hospital",
      "type": "Hospital",
      "city": "Margao",
      "district": "Margao",
      "state": "Goa",
      "phone": null,
      "lat": 15.2748,
      "lng": 73.9573,
      "pincode": "403602",
      "address": "No.P-602,Fatorda,Next To Fatorda Stadium,Salcete,"
    },
    {
      "name": "A.V.M. Hospital A.V.M.M. Associates (P) Ltd",
      "type": "Hospital",
      "city": "Tuticorin",
      "district": "Tuticorin",
      "state": "Tamilnadu",
      "phone": null,
      "lat": 8.7642,
      "lng": 78.1348,
      "pincode": "628003",
      "address": "# 135, Palayamkottai Roadtuticorin"
    },
    {
      "name": "Aabu Tayshete Memorial Hospital",
      "type": "Hospital",
      "city": "Sindhudurga",
      "district": "Sindhudurga",
      "state": "Maharashtra",
      "phone": null,
      "lat": 16.359,
      "lng": 73.56,
      "pincode": "416602",
      "address": "Behind Hotel Sahyadri Kankavlisindhudurga, Maharashtra."
    },
    {
      "name": "Aadhar Hospital",
      "type": "Hospital",
      "city": "Belgaum",
      "district": "Belgaum",
      "state": "Karnataka",
      "phone": null,
      "lat": 15.8497,
      "lng": 74.4977,
      "pincode": "590002",
      "address": "Court Road,Chavatgalli"
    },
    {
      "name": "Aadithya Adhikari Hospital",
      "type": "Hospital",
      "city": "Mysore",
      "district": "Mysore",
      "state": "Karnataka",
      "phone": null,
      "lat": 12.2958,
      "lng": 76.6394,
      "pincode": "570002",
      "address": "#417, Contour Road,3Rd Stage Gokulaum, Mysore-570002"
    },
    {
      "name": "Aaditya Hospital",
      "type": "Hospital",
      "city": "Sangli",
      "district": "Sangli",
      "state": "Maharashtra",
      "phone": null,
      "lat": 16.8524,
      "lng": 74.5815,
      "pincode": "416415",
      "address": "Main Chowk Vishrambag"
    },
    {
      "name": "Aadya Ent Hospital",
      "type": "Hospital",
      "city": "Ahmedabad",
      "district": "Ahmedabad",
      "state": "Gujarat",
      "phone": null,
      "lat": 23.0225,
      "lng": 72.5714,
      "pincode": "380045",
      "address": "Shivam Complex, Janata Chamber, Saijpur Tower."
    },
    {
      "name": "Aadya Eye Hospital",
      "type": "Hospital",
      "city": "Ahmedabad",
      "district": "Ahmedabad",
      "state": "Gujarat",
      "phone": null,
      "lat": 23.0225,
      "lng": 72.5714,
      "pincode": "380045",
      "address": "Near Saijpur Tower, Janata Market."
    },
    {
      "name": "Aagman Hospital",
      "type": "Hospital",
      "city": "Rajkot",
      "district": "Rajkot",
      "state": "Gujarat",
      "phone": null,
      "lat": 22.3039,
      "lng": 70.8022,
      "pincode": "360007",
      "address": "Madhav Vatika Raiya Road."
    },
    {
      "name": "Aakar Hospital",
      "type": "Hospital",
      "city": "Rajkot",
      "district": "Rajkot",
      "state": "Gujarat",
      "phone": null,
      "lat": 22.3039,
      "lng": 70.8022,
      "pincode": "360002",
      "address": "Virani School Chowk,Opp Punjab Bank,Ramkrishna Nagar Main Road,"
    },
    {
      "name": "Aakash Eye Hospital",
      "type": "Hospital",
      "city": "Mehsana",
      "district": "Mehsana",
      "state": "Gujarat",
      "phone": null,
      "lat": 23.588,
      "lng": 72.3693,
      "pincode": "384315",
      "address": "A 19-20,Suraksha Society,Near B.Ed.College,Visnagar,Shivmarket"
    },
    {
      "name": "Aakash Hospital",
      "type": "Hospital",
      "city": "Delhi",
      "district": "Delhi",
      "state": "Delhi",
      "phone": null,
      "lat": 28.6139,
      "lng": 77.209,
      "pincode": "110017",
      "address": "90/43, Malviya Nagar, New Delhi"
    },
    {
      "name": "Aakash Hospital",
      "type": "Hospital",
      "city": "Chennai",
      "district": "Chennai",
      "state": "Tamilnadu",
      "phone": null,
      "lat": 13.0827,
      "lng": 80.2707,
      "pincode": "600019",
      "address": "# 393/1, T.H. Road, (Annexe) 393/1, Tiruvottiyur.Tiruvallur"
    },
    {
      "name": "Aakashdeep Hospital",
      "type": "Hospital",
      "city": "Koparkhairane",
      "district": "Koparkhairane",
      "state": "Maharashtra",
      "phone": null,
      "lat": 19.0986,
      "lng": 73.014,
      "pincode": "400709",
      "address": "# 98, Sector-7, Koperkhairna,Navi Mumbai-400709."
    },
    {
      "name": "Aalok Ortho Care",
      "type": "Hospital",
      "city": "Ahmedabad",
      "district": "Ahmedabad",
      "state": "Gujarat",
      "phone": null,
      "lat": 23.0225,
      "lng": 72.5714,
      "pincode": "380014",
      "address": "#8, Vidhyavihar Colony, Opp Hotel Fortune Lankmark, Usmanpura, Ahmedabad, Gujarat"
    },
    {
      "name": "Aarif Nursing Home",
      "type": "Hospital",
      "city": "Vizag",
      "district": "Vizag",
      "state": "Andhra Pradesh",
      "phone": null,
      "lat": 17.6868,
      "lng": 83.2185,
      "pincode": "530020",
      "address": "Lakshmi Street,Near Income Tax Office"
    },
    {
      "name": "Aarogya Hospital (A Unit Of Kastura Medicos Limited",
      "type": "Hospital",
      "city": "Vaishali",
      "district": "Vaishali",
      "state": "Uttar Pradesh",
      "phone": null,
      "lat": 28.6448,
      "lng": 77.3447,
      "pincode": "201010",
      "address": "Plot No-Nh-1, Sec-6, Vaishali, Ghaziabad, Uttar Pradesh"
    },
    {
      "name": "Aarogyam Multispeciality Hospital",
      "type": "Hospital",
      "city": "Mumbai",
      "district": "Mumbai",
      "state": "Maharashtra",
      "phone": null,
      "lat": 19.076,
      "lng": 72.8777,
      "pincode": "400603",
      "address": "1St Floor, Renuka Bldg, Appo Mangala High School, Above Bank, Maharashtra, Mumbaimumbai"
    },
    {
      "name": "Aarthi Hospital",
      "type": "Hospital",
      "city": "Tirunelveli",
      "district": "Tirunelveli",
      "state": "Tamilnadu",
      "phone": null,
      "lat": 8.7139,
      "lng": 77.7567,
      "pincode": "628502",
      "address": "60,Santhaipettai Street"
    },
    {
      "name": "Aarthy Eye Hospital",
      "type": "Hospital",
      "city": "Karur",
      "district": "Karur",
      "state": "Tamilnadu",
      "phone": null,
      "lat": 10.9601,
      "lng": 78.0766,
      "pincode": "639002",
      "address": "#16, Sengunthapuram Main Road, Karur."
    },
    {
      "name": "Aaruni Hospital Pvt Ltd",
      "type": "Hospital",
      "city": "Rajkot",
      "district": "Rajkot",
      "state": "Gujarat",
      "phone": null,
      "lat": 22.3039,
      "lng": 70.8022,
      "pincode": "360001",
      "address": "Next To Holy Saint School,Kalawad Road"
    },
    {
      "name": "Aaryan Institute Of Medical Sciences",
      "type": "Hospital",
      "city": "Kutch",
      "district": "Kutch",
      "state": "Gujarat",
      "phone": null,
      "lat": 23.7337,
      "lng": 69.8597,
      "pincode": "370465",
      "address": "Navanaka,Mandvi,Near Opp Sawmi Narayana Mandir"
    },
    {
      "name": "Aasha Hospitals",
      "type": "Hospital",
      "city": "Ananthapur",
      "district": "Ananthapur",
      "state": "Andhra Pradesh",
      "phone": null,
      "lat": 14.6819,
      "lng": 77.6006,
      "pincode": "515001",
      "address": "7-201,Court Road,Anantapur"
    },
    {
      "name": "Aashirwad Hospital",
      "type": "Hospital",
      "city": "Gurgaon",
      "district": "Gurgaon",
      "state": "Haryana",
      "phone": null,
      "lat": 28.4595,
      "lng": 77.0266,
      "pincode": "125001",
      "address": "G-121, Oriental Villa, Sushant Lok-Iii, Sector-57."
    },
    {
      "name": "Aashirwad Hospital",
      "type": "Hospital",
      "city": "Thane",
      "district": "Thane",
      "state": "Maharashtra",
      "phone": null,
      "lat": 19.2183,
      "lng": 72.9781,
      "pincode": "421306",
      "address": "Om Shraddha Tower, Above Tdcc Bank Pune Link Road, Tisgaon, Kalyan Est, Thane."
    },
    {
      "name": "Aashirwad Nursing Home",
      "type": "Hospital",
      "city": "Mumbai",
      "district": "Mumbai",
      "state": "Maharashtra",
      "phone": null,
      "lat": 19.076,
      "lng": 72.8777,
      "pincode": "400053",
      "address": "Ashirwad, Swami Samarth Nagar, 2Nd Cross Lane, Lokhandwala Complex, Andheri West"
    },
    {
      "name": "Aashirwad Nursing Home & Iccu",
      "type": "Hospital",
      "city": "Mumbai",
      "district": "Mumbai",
      "state": "Maharashtra",
      "phone": null,
      "lat": 19.076,
      "lng": 72.8777,
      "pincode": "400064",
      "address": "A3, New Green Apartments,Tilak Chowk, Turel Pakhadi Roa"
    },
    {
      "name": "Aashirwad Nursing Home (Heart And Diabetes Center)",
      "type": "Hospital",
      "city": "New Delhi",
      "district": "New Delhi",
      "state": "Delhi",
      "phone": null,
      "lat": 28.6139,
      "lng": 77.209,
      "pincode": "110059",
      "address": "A-29/3, Lions Enclave, Marble Block, Vikas Nagar, Uttam Nagar, New Delhi-110059"
    },
    {
      "name": "Aashlok Nursing Home Pvt Ltd",
      "type": "Hospital",
      "city": "Delhi",
      "district": "Delhi",
      "state": "Delhi",
      "phone": null,
      "lat": 28.6139,
      "lng": 77.209,
      "pincode": "110029",
      "address": "#25A, Block-Ab, Community Centre,Safdarjung Enclave, Newdelhi-110029"
    },
    {
      "name": "Aastha Eye Centre",
      "type": "Hospital",
      "city": "Faridabad",
      "district": "Faridabad",
      "state": "Haryana",
      "phone": null,
      "lat": 28.4089,
      "lng": 77.3178,
      "pincode": "121001",
      "address": "5-R/5 N.I.T, Near Neelam Petrol Pump, Faridabad-121001"
    },
    {
      "name": "Aastha Hospital",
      "type": "Hospital",
      "city": "Delhi",
      "district": "Delhi",
      "state": "Delhi",
      "phone": null,
      "lat": 28.6139,
      "lng": 77.209,
      "pincode": "110018",
      "address": "L-2/50, New Mahavir Nagar Outer Ring Road Near Janakpuri Dist Centre"
    },
    {
      "name": "Aastha Hospital",
      "type": "Hospital",
      "city": "Thane",
      "district": "Thane",
      "state": "Maharashtra",
      "phone": null,
      "lat": 19.2183,
      "lng": 72.9781,
      "pincode": "401202",
      "address": "No.104,New Krishna Housing Society,Near Dhuri Motors,Ambadi Road,Vasai(W),Thane,"
    },
    {
      "name": "Aastha Hospital",
      "type": "Hospital",
      "city": "Ulhasnagar",
      "district": "Ulhasnagar",
      "state": "Maharashtra",
      "phone": null,
      "lat": 19.2183,
      "lng": 73.1637,
      "pincode": "421003",
      "address": "Hospital Area Ulhasnagar -3Thane"
    },
    {
      "name": "Aastha Kidney & Multispecialty Hospital",
      "type": "Hospital",
      "city": "Sriganganagar",
      "district": "Sriganganagar",
      "state": "Rajasthan",
      "phone": null,
      "lat": 29.9038,
      "lng": 73.8772,
      "pincode": "335001",
      "address": "2-D-1, Sukhadia Nagar, Sri Ganganagar, Rajasthan"
    },
    {
      "name": "Aayush Eye Clinic",
      "type": "Hospital",
      "city": "Mumbai",
      "district": "Mumbai",
      "state": "Maharashtra",
      "phone": null,
      "lat": 19.076,
      "lng": 72.8777,
      "pincode": "400071",
      "address": "201, Coral Classic,20Th Road."
    },
    {
      "name": "Aayushmaan Hospital",
      "type": "Hospital",
      "city": "Bijnor",
      "district": "Bijnor",
      "state": "Uttar Pradesh",
      "phone": null,
      "lat": 29.3714,
      "lng": 78.1354,
      "pincode": "246701",
      "address": "Kiratpur Road"
    },
    {
      "name": "Aayushman The Family Hospital",
      "type": "Hospital",
      "city": "Kurnool",
      "district": "Kurnool",
      "state": "Andhra Pradesh",
      "phone": null,
      "lat": 15.8281,
      "lng": 78.0373,
      "pincode": "518003",
      "address": "D.No.45/145A1,Venkataramana Colony"
    },
    {
      "name": "Abc Hospitals",
      "type": "Hospital",
      "city": "Visakhapatnam",
      "district": "Visakhapatnam",
      "state": "Andhra Pradesh",
      "phone": null,
      "lat": 17.6868,
      "lng": 83.2185,
      "pincode": "530002",
      "address": "#16-1-13, Kgh To Beach Down, Opp. Coastal Battery, Maharanipeta, Visakhapatnam, Visakha, Andhrapradesh-530002"
    },
    {
      "name": "Abdul Khadir Hospital",
      "type": "Hospital",
      "city": "Nagercoil",
      "district": "Nagercoil",
      "state": "Tamilnadu",
      "phone": null,
      "lat": 8.1833,
      "lng": 77.4119,
      "pincode": "629002",
      "address": "Parakkai Road,Elankadai,Kottar"
    },
    {
      "name": "Abha Nursing Home (P) Ltd",
      "type": "Hospital",
      "city": "Kanpur",
      "district": "Kanpur",
      "state": "Uttar Pradesh",
      "phone": null,
      "lat": 26.4499,
      "lng": 80.3319,
      "pincode": "208002",
      "address": "10/503-B, Allengami, Kanpur"
    },
    {
      "name": "Abhaya Critical Care",
      "type": "Hospital",
      "city": "Vizag",
      "district": "Vizag",
      "state": "Andhra Pradesh",
      "phone": null,
      "lat": 17.6868,
      "lng": 83.2185,
      "pincode": "530002",
      "address": "18-1-34, Opp. K.G.H. Gatemaharanipeta,"
    },
    {
      "name": "Abhaya Emergency Centre Sri Hospitals",
      "type": "Hospital",
      "city": "Rajamundry",
      "district": "Rajamundry",
      "state": "Andhra Pradesh",
      "phone": null,
      "lat": 16.9891,
      "lng": 81.7836,
      "pincode": "533103",
      "address": "79-1-4/1, J.N. Road"
    },
    {
      "name": "Abhaya Eye Hospital",
      "type": "Hospital",
      "city": "Bangalore",
      "district": "Bangalore",
      "state": "Karnataka",
      "phone": null,
      "lat": 12.9716,
      "lng": 77.5946,
      "pincode": "560085",
      "address": "#77,Bsk 3Rd Stage, 100Ft Ring Road,5Th Block."
    },
    {
      "name": "Abhaya Hospital",
      "type": "Hospital",
      "city": "Belthangady",
      "district": "Belthangady",
      "state": "Karnataka",
      "phone": null,
      "lat": 12.9833,
      "lng": 75.287,
      "pincode": "574214",
      "address": "1-78D, Jainpeta, Belthangaby, Dakshina Kannada, Karnataka"
    },
    {
      "name": "Abhaya Hospital (Neuropsychiatry & Critical Care Hospital Pvt Ltd)",
      "type": "Hospital",
      "city": "Bangalore",
      "district": "Bangalore",
      "state": "Karnataka",
      "phone": null,
      "lat": 12.9716,
      "lng": 77.5946,
      "pincode": "560027",
      "address": "17, Dr.M.H.Mari Gowda Road,Wilson Garden,Bangalore"
    },
    {
      "name": "Abhaya- Bbc Children Hospital",
      "type": "Hospital",
      "city": "Hyderabad",
      "district": "Hyderabad",
      "state": "Andhra Pradesh",
      "phone": null,
      "lat": 17.385,
      "lng": 78.4867,
      "pincode": "500044",
      "address": "Hindi Maha Vidyalaya Complex, O.U. Road, Vidya Nagar."
    },
    {
      "name": "Abhi Sai Hospitals",
      "type": "Hospital",
      "city": "Miryalaguda",
      "district": "Miryalaguda",
      "state": "Andhra Pradesh",
      "phone": null,
      "lat": 16.8698,
      "lng": 79.5628,
      "pincode": "508207",
      "address": "Doctor'S Colony,Miryalguda"
    },
    {
      "name": "Abhijay Hospital (P) Ltd.",
      "type": "Hospital",
      "city": "Chennai",
      "district": "Chennai",
      "state": "Tamilnadu",
      "phone": null,
      "lat": 13.0827,
      "lng": 80.2707,
      "pincode": "600011",
      "address": "No.22/2, E.S.I Hospital Road,Peravallur,"
    },
    {
      "name": "Abhijit Hospital",
      "type": "Hospital",
      "city": "Mumbai",
      "district": "Mumbai",
      "state": "Maharashtra",
      "phone": null,
      "lat": 19.076,
      "lng": 72.8777,
      "pincode": "400064",
      "address": "Divya Trusha Mamlatdar Wadiroad Malad (West)"
    },
    {
      "name": "Abhilash Hospital & Sara Rehabilitation Centre",
      "type": "Hospital",
      "city": "Bangalore",
      "district": "Bangalore",
      "state": "Karnataka",
      "phone": null,
      "lat": 12.9716,
      "lng": 77.5946,
      "pincode": "560085",
      "address": "#271, 1Ooft Ring Road, 5Th Block,3Rd Phase, 3Rd Stage,Banashankri."
    },
    {
      "name": "Abhilasha Hospital",
      "type": "Hospital",
      "city": "Chandigarh",
      "district": "Chandigarh",
      "state": "Punjab",
      "phone": null,
      "lat": 30.7333,
      "lng": 76.7794,
      "pincode": "160022",
      "address": "House No 201 Sector 35 A"
    },
    {
      "name": "Abhinandan Hospital",
      "type": "Hospital",
      "city": "Patna",
      "district": "Patna",
      "state": "Bihar",
      "phone": null,
      "lat": 25.5941,
      "lng": 85.1376,
      "pincode": "800020",
      "address": "0/60, Doctors Colony, Kankar Baga"
    },
    {
      "name": "Abhinav Drishti Eye Hospital",
      "type": "Hospital",
      "city": "Lucknow",
      "district": "Lucknow",
      "state": "Uttar Pradesh",
      "phone": null,
      "lat": 26.8467,
      "lng": 80.9462,
      "pincode": "226006",
      "address": "B-719, Sector-C, Mahanagar Lucknow"
    },
    {
      "name": "Abhinav Multispeciality Hospital",
      "type": "Hospital",
      "city": "Nagpur",
      "district": "Nagpur",
      "state": "Maharashtra",
      "phone": null,
      "lat": 21.1458,
      "lng": 79.0882,
      "pincode": "440017",
      "address": "Naya Nakasha, Lashkari Bagh."
    },
    {
      "name": "Abhiram Institute Of Medical Sciences",
      "type": "Hospital",
      "city": "Nellore",
      "district": "Nellore",
      "state": "Andhra Pradesh",
      "phone": null,
      "lat": 14.4426,
      "lng": 79.9865,
      "pincode": "524322",
      "address": "Opp Aps Rtc Depot, Atmakur, Nellore"
    },
    {
      "name": "Abhishek Nethradhama",
      "type": "Hospital",
      "city": "Bangalore",
      "district": "Bangalore",
      "state": "Karnataka",
      "phone": null,
      "lat": 12.9716,
      "lng": 77.5946,
      "pincode": "561203",
      "address": "Mosque Complex, Opp Rajkamar Talkies, Fort Road,"
    },
    {
      "name": "Abhishek Nursing Home (L.P.Diagnostics Pvt. Ltd.)",
      "type": "Hospital",
      "city": "Mumbai",
      "district": "Mumbai",
      "state": "Maharashtra",
      "phone": null,
      "lat": 19.076,
      "lng": 72.8777,
      "pincode": "400084",
      "address": "Jagruti Co-Op.Soci Bhatwadi,Ghatkopm- (W), Mumbai - 400084Near Maratha Mandir,Co-Op Bank"
    },
    {
      "name": "Abinand Hospital",
      "type": "Hospital",
      "city": "Coimbatore",
      "district": "Coimbatore",
      "state": "Tamilnadu",
      "phone": null,
      "lat": 11.0168,
      "lng": 76.9558,
      "pincode": "641024",
      "address": "237-F/7, Pollachi Main Road,Sundarapuram, Coimbatore"
    },
    {
      "name": "Abiraami Hospital",
      "type": "Hospital",
      "city": "Cuddalore",
      "district": "Cuddalore",
      "state": "Tamilnadu",
      "phone": null,
      "lat": 11.748,
      "lng": 79.7714,
      "pincode": "607001",
      "address": "24-Alc,Campus,Manjakuppam"
    },
    {
      "name": "Acchutha Eye Care",
      "type": "Hospital",
      "city": "Erode",
      "district": "Erode",
      "state": "Tamilnadu",
      "phone": null,
      "lat": 11.341,
      "lng": 77.7172,
      "pincode": "638009",
      "address": "#H-3, Evn Road, Permar Nagar, Near Surampatti Nall Road, Erode-638009"
    },
    {
      "name": "Accident Fracture And Orthopedic Hospital",
      "type": "Hospital",
      "city": "Gandhinagar",
      "district": "Gandhinagar",
      "state": "Gujarat",
      "phone": null,
      "lat": 23.2156,
      "lng": 72.6369,
      "pincode": "382010",
      "address": "Near Green Park Dunetha Road , Nani Daman, Gandhinagar, Gujarat-382010"
    },
    {
      "name": "Ace Heart & Vascular Institute. (A Unit Of Prime Cardiac Care Pvt. Ltd.)",
      "type": "Hospital",
      "city": "Mohali",
      "district": "Mohali",
      "state": "Punjab",
      "phone": null,
      "lat": 30.7046,
      "lng": 76.7179,
      "pincode": "160055",
      "address": "Sector-69,Shivalik Hospital"
    },
    {
      "name": "Acharya Shri Chander College Of Medical Sciences & Hospital",
      "type": "Hospital",
      "city": "Jammu",
      "district": "Jammu",
      "state": "Jammu & Kashmir",
      "phone": null,
      "lat": 32.7266,
      "lng": 74.857,
      "pincode": "180017",
      "address": "P.B # 5, Hpo Gandhi Nagar,Jammu-180017."
    },
    {
      "name": "Acharya Tulsi Jain Hospital",
      "type": "Hospital",
      "city": "Bangalore",
      "district": "Bangalore",
      "state": "Karnataka",
      "phone": null,
      "lat": 12.9716,
      "lng": 77.5946,
      "pincode": "560022",
      "address": "Mom(M)W6-P-6,#22/2-1,6Th Cross,K.N Extension"
    },
    {
      "name": "Acharya Vinoba Bhave Rural Hospital",
      "type": "Hospital",
      "city": "Wardha",
      "district": "Wardha",
      "state": "Maharashtra",
      "phone": null,
      "lat": 20.7453,
      "lng": 78.6022,
      "pincode": "442004",
      "address": "Yavatmal Road,Sawangi (Meghe)Wardha-442004."
    },
    {
      "name": "Achyut Pandit Hospital",
      "type": "Hospital",
      "city": "Karwar",
      "district": "Karwar",
      "state": "Karnataka",
      "phone": null,
      "lat": 14.8007,
      "lng": 74.1298,
      "pincode": "581343",
      "address": "Kumbeswar Temple Road,Kumta"
    },
    {
      "name": "Action Cancer Hospital",
      "type": "Hospital",
      "city": "Delhi",
      "district": "Delhi",
      "state": "Delhi",
      "phone": null,
      "lat": 28.6139,
      "lng": 77.209,
      "pincode": "110063",
      "address": "H-2/Fc-34,A4 Pashim Vihar"
    },
    {
      "name": "Acura Health Care Pvt Ltd",
      "type": "Hospital",
      "city": "Bangalore",
      "district": "Bangalore",
      "state": "Karnataka",
      "phone": null,
      "lat": 12.9716,
      "lng": 77.5946,
      "pincode": "560095",
      "address": "#435,18Th Main,Koramangala 6Th Block(Near Ndoor Stadium)"
    },
    {
      "name": "Adarsh Hospital",
      "type": "Hospital",
      "city": "Eastgodavari",
      "district": "Eastgodavari",
      "state": "Andhra Pradesh",
      "phone": null,
      "lat": 17.0,
      "lng": 82.0,
      "pincode": "533103",
      "address": "86-26-5, V.L. Puram Jn, M.S. Narayana Street, Rajahmundry-533107"
    },
    {
      "name": "Adarsh Hospital",
      "type": "Hospital",
      "city": "Surat",
      "district": "Surat",
      "state": "Gujarat",
      "phone": null,
      "lat": 21.1702,
      "lng": 72.8311,
      "pincode": "395007",
      "address": "16-23, Suryakiran Appartments,Ghoddod Road, Surat-395007."
    },
    {
      "name": "Adarsh Hospital",
      "type": "Hospital",
      "city": "Mumbai",
      "district": "Mumbai",
      "state": "Maharashtra",
      "phone": null,
      "lat": 19.076,
      "lng": 72.8777,
      "pincode": "400064",
      "address": "Meenakshi Apartments,C - Wing, 1St Floor, Marve Road,Maladmalad (W)"
    },
    {
      "name": "Adarsh Hospital",
      "type": "Hospital",
      "city": "Pune",
      "district": "Pune",
      "state": "Maharashtra",
      "phone": null,
      "lat": 18.5204,
      "lng": 73.8567,
      "pincode": "411048",
      "address": "Sn 11/12,Kondhwa Budruk,Near Katraj Khondwa Road,Near Kaveri Apartments"
    },
    {
      "name": "Adarsh Nursing Home",
      "type": "Hospital",
      "city": "Bellary",
      "district": "Bellary",
      "state": "Karnataka",
      "phone": null,
      "lat": 15.1394,
      "lng": 76.9214,
      "pincode": "583103",
      "address": "Gopalswamy Road,Gandhinagar"
    },
    {
      "name": "Adarsha Hospital",
      "type": "Hospital",
      "city": "Kundapur",
      "district": "Kundapur",
      "state": "Karnataka",
      "phone": null,
      "lat": 13.6269,
      "lng": 74.6896,
      "pincode": "576201",
      "address": "# 274/Vi, N.H. # 17, Kundapura, Udapi-576201Udupi- 576201"
    },
    {
      "name": "Adarsha Hospital Udupi",
      "type": "Hospital",
      "city": "Udupi",
      "district": "Udupi",
      "state": "Karnataka",
      "phone": null,
      "lat": 13.3409,
      "lng": 74.7421,
      "pincode": "576101",
      "address": "Near K.S.R.T.C Bus Stand, Udupi"
    },
    {
      "name": "Adarsha Nethralayam",
      "type": "Hospital",
      "city": "Warangal",
      "district": "Warangal",
      "state": "Andhra Pradesh",
      "phone": null,
      "lat": 17.9784,
      "lng": 79.5941,
      "pincode": "506002",
      "address": "9-5-53, Mandibazar, Warangal, A.P"
    },
    {
      "name": "Adarsha Nursing Home",
      "type": "Hospital",
      "city": "Tumkur",
      "district": "Tumkur",
      "state": "Karnataka",
      "phone": null,
      "lat": 13.3422,
      "lng": 77.101,
      "pincode": "572103",
      "address": "Sharadadevi Nagaropp Mg Stadium"
    },
    {
      "name": "Adavally Damodar Reddy Memorial Hospital",
      "type": "Hospital",
      "city": "Himayatnagar",
      "district": "Himayatnagar",
      "state": "Andhra Pradesh",
      "phone": null,
      "lat": 17.3969,
      "lng": 78.4886,
      "pincode": "500013",
      "address": "3-97, Sharadanagar, Ramanthapur,Ranfa Reddy."
    },
    {
      "name": "Add Hospital Pvt Ltd",
      "type": "Hospital",
      "city": "Cuttack",
      "district": "Cuttack",
      "state": "Orissa",
      "phone": null,
      "lat": 20.4625,
      "lng": 85.883,
      "pincode": "753003",
      "address": "Junus Patna College Square"
    },
    {
      "name": "Adesh Hospital & Research Centre",
      "type": "Hospital",
      "city": "Muktsar",
      "district": "Muktsar",
      "state": "Punjab",
      "phone": null,
      "lat": 30.4755,
      "lng": 74.5145,
      "pincode": "152026",
      "address": "Kotkapura Road Sri Muktsar Sahibmuktsar"
    },
    {
      "name": "Adichunchanagiri Hospital & Research",
      "type": "Hospital",
      "city": "Mandya",
      "district": "Mandya",
      "state": "Karnataka",
      "phone": null,
      "lat": 12.5218,
      "lng": 76.8951,
      "pincode": "571448",
      "address": "Balagangadharanatha Nagara, Nagamangala Taluk, Mandya Dist, Mandya-571448Nagamangala Taluk, Mandya Dist"
    },
    {
      "name": "Adilakshmi Nursing Home",
      "type": "Hospital",
      "city": "Guntur",
      "district": "Guntur",
      "state": "Andhra Pradesh",
      "phone": null,
      "lat": 16.3067,
      "lng": 80.4365,
      "pincode": "522124",
      "address": "G.B.C. Raod, Ponnur."
    },
    {
      "name": "Adinath Hospital",
      "type": "Hospital",
      "city": "Ghaziabad",
      "district": "Ghaziabad",
      "state": "Uttar Pradesh",
      "phone": null,
      "lat": 28.6692,
      "lng": 77.4538,
      "pincode": "201010",
      "address": "Plot No 330 Gyan Khand 1 Indirapuram Ghaziabad"
    },
    {
      "name": "Adithi Maternity And General Nursing Home",
      "type": "Hospital",
      "city": "Bangalore",
      "district": "Bangalore",
      "state": "Karnataka",
      "phone": null,
      "lat": 12.9716,
      "lng": 77.5946,
      "pincode": "560076",
      "address": "#78,Omkarnagar, B.G. Road."
    },
    {
      "name": "Adithya Nursing Home",
      "type": "Hospital",
      "city": "Ramanagaram",
      "district": "Ramanagaram",
      "state": "Karnataka",
      "phone": null,
      "lat": 12.7183,
      "lng": 77.2808,
      "pincode": "571511",
      "address": "57 Opp Junior College Ramanagaram"
    },
    {
      "name": "Adithya Speciality Hospital",
      "type": "Hospital",
      "city": "Madurai",
      "district": "Madurai",
      "state": "Tamilnadu",
      "phone": null,
      "lat": 9.9252,
      "lng": 78.1198,
      "pincode": "625006",
      "address": "277, G.S.T Main Road, Near Harveypatty Bus Stop, Thirunagar, Madurai - 625006"
    },
    {
      "name": "Aditi Hosptial",
      "type": "Hospital",
      "city": "Bangalore",
      "district": "Bangalore",
      "state": "Karnataka",
      "phone": null,
      "lat": 12.9716,
      "lng": 77.5946,
      "pincode": "562106",
      "address": "Gandhi Square Newpet,Anekal"
    },
    {
      "name": "Aditi Medical Centre",
      "type": "Hospital",
      "city": "Ghaziabad",
      "district": "Ghaziabad",
      "state": "Uttar Pradesh",
      "phone": null,
      "lat": 28.6692,
      "lng": 77.4538,
      "pincode": "201012",
      "address": "Sector-4, Plot No-117, Near Ramlila Ground."
    },
    {
      "name": "Adittya Eye Clinic",
      "type": "Hospital",
      "city": "Mumbai",
      "district": "Mumbai",
      "state": "Maharashtra",
      "phone": null,
      "lat": 19.076,
      "lng": 72.8777,
      "pincode": "400067",
      "address": "M.G.Road, Ronik Apts, 1St Floor,Kandival(W)"
    },
    {
      "name": "Aditya Care Hospital",
      "type": "Hospital",
      "city": "Khurda",
      "district": "Khurda",
      "state": "Orissa",
      "phone": null,
      "lat": 20.1813,
      "lng": 85.6152,
      "pincode": "751014",
      "address": "329/1929(P),Chandrasekharpur,Khurdha"
    },
    {
      "name": "Aditya Diagnostics & Hospitals (A Unit Of Dr. N. Sahewalla & Co Pvt. Ltd)",
      "type": "Hospital",
      "city": "Dibrugarh",
      "district": "Dibrugarh",
      "state": "Assam",
      "phone": null,
      "lat": 27.4728,
      "lng": 94.912,
      "pincode": "786005",
      "address": "AMC Road, Bordoloi Avenue, Dibrugarl Dist, Assam-786005."
    },
    {
      "name": "Aditya Eye Clinic And Contact Lens Centre",
      "type": "Hospital",
      "city": "Pune",
      "district": "Pune",
      "state": "Maharashtra",
      "phone": null,
      "lat": 18.5204,
      "lng": 73.8567,
      "pincode": "411001",
      "address": "Office # 1A,Kumar Plaza,M.G.Road,"
    },
    {
      "name": "Aditya Eye Hospital",
      "type": "Hospital",
      "city": "Ernakulam",
      "district": "Ernakulam",
      "state": "Kerala",
      "phone": null,
      "lat": 9.9816,
      "lng": 76.2999,
      "pincode": "682021",
      "address": "Judge Mukku, Thrikkakara, Kochi-682021"
    },
    {
      "name": "Aditya Health Research Foundation (P) Ltd",
      "type": "Hospital",
      "city": "Kolkata",
      "district": "Kolkata",
      "state": "West Bengal",
      "phone": null,
      "lat": 22.5726,
      "lng": 88.3639,
      "pincode": "700055",
      "address": "965, Jessore Road, Dumdum,Kolkata"
    },
    {
      "name": "Aditya Hospital",
      "type": "Hospital",
      "city": "Hyderabad",
      "district": "Hyderabad",
      "state": "Andhra Pradesh",
      "phone": null,
      "lat": 17.385,
      "lng": 78.4867,
      "pincode": "500001",
      "address": "#4-1-16, Boggulakunta, Tilak Road, Adids, Hyderbad-500001Abids"
    },
    {
      "name": "Aditya Hospital",
      "type": "Hospital",
      "city": "Chennai",
      "district": "Chennai",
      "state": "Tamilnadu",
      "phone": null,
      "lat": 13.0827,
      "lng": 80.2707,
      "pincode": "600010",
      "address": "No.7, Barnbay Road, Kilpauk, Chennai-600010"
    },
    {
      "name": "Aditya Jyot Eye Hospital (P) Ltd.",
      "type": "Hospital",
      "city": "Mumbai",
      "district": "Mumbai",
      "state": "Maharashtra",
      "phone": null,
      "lat": 19.076,
      "lng": 72.8777,
      "pincode": "400031",
      "address": "Plot # 153,Mojar Parmeshwaranroad (Opp) Siws Collage Gate #"
    },
    {
      "name": "Aditya Medical Park (A Unit Of Aditya Health Research Foundation Pvt Ltd)",
      "type": "Hospital",
      "city": "Kolkata",
      "district": "Kolkata",
      "state": "West Bengal",
      "phone": null,
      "lat": 22.5726,
      "lng": 88.3639,
      "pincode": "700124",
      "address": "Taki Road, Kadambagachi, Barasat, 24 Parganas (N)Barasat-700124"
    },
    {
      "name": "Aditya Multi Care Hospital",
      "type": "Hospital",
      "city": "Visakhapatnam",
      "district": "Visakhapatnam",
      "state": "Andhra Pradesh",
      "phone": null,
      "lat": 17.6868,
      "lng": 83.2185,
      "pincode": "530002",
      "address": "18-1-33, Opp. K.G.H.O.P Gate, Aditya Medical Complex, Vishkhapatnam-530002"
    },
    {
      "name": "Aditya Multispeciality Hospital",
      "type": "Hospital",
      "city": "Warangal",
      "district": "Warangal",
      "state": "Andhra Pradesh",
      "phone": null,
      "lat": 17.9784,
      "lng": 79.5941,
      "pincode": "506001",
      "address": "Opp: Police Parade Grounds,Hanamkanda,Kishanpura."
    },
    {
      "name": "Aditya Netralaya",
      "type": "Hospital",
      "city": "Bangalore",
      "district": "Bangalore",
      "state": "Karnataka",
      "phone": null,
      "lat": 12.9716,
      "lng": 77.5946,
      "pincode": "560085",
      "address": "#244, 7Th Cross 6 Block 3 Puase 3Block Banashankari, Bangalore-560085"
    },
    {
      "name": "Aditya Nursing Home",
      "type": "Hospital",
      "city": "Kurnool",
      "district": "Kurnool",
      "state": "Andhra Pradesh",
      "phone": null,
      "lat": 15.8281,
      "lng": 78.0373,
      "pincode": "518302",
      "address": "No.1/541-135,Aas College Road,Adoni,"
    },
    {
      "name": "Aditya Nursing Home",
      "type": "Hospital",
      "city": "Indore",
      "district": "Indore",
      "state": "Madhya Pradesh",
      "phone": null,
      "lat": 22.7196,
      "lng": 75.8577,
      "pincode": "452009",
      "address": "#315, Usha Nagar Extension."
    },
    {
      "name": "Aditya Orthopaedic & Trauma Centre",
      "type": "Hospital",
      "city": "Tumkur",
      "district": "Tumkur",
      "state": "Karnataka",
      "phone": null,
      "lat": 13.3422,
      "lng": 77.101,
      "pincode": "572102",
      "address": "Sri Shivakumar Swamy Circle, Bh Raod Tumkur-2"
    },
    {
      "name": "Aditya Orthopaedic Hospital",
      "type": "Hospital",
      "city": "Ahmedabad",
      "district": "Ahmedabad",
      "state": "Gujarat",
      "phone": null,
      "lat": 23.0225,
      "lng": 72.5714,
      "pincode": "380015",
      "address": "#201,202,Aditya Plaza,Jodhpur Road,Satellite"
    },
    {
      "name": "Adityaj Hospital",
      "type": "Hospital",
      "city": "Mohali",
      "district": "Mohali",
      "state": "Punjab",
      "phone": null,
      "lat": 30.7046,
      "lng": 76.7179,
      "pincode": "160055",
      "address": "S.C.O.18,(F.F),Phase-1,S.A.S,Nagar"
    },
    {
      "name": "Adiva Hospital Pvt. Ltd.",
      "type": "Hospital",
      "city": "Delhi",
      "district": "Delhi",
      "state": "Delhi",
      "phone": null,
      "lat": 28.6139,
      "lng": 77.209,
      "pincode": "110017",
      "address": "C- 1/C Green Park Ext"
    },
    {
      "name": "Adr Hospital",
      "type": "Hospital",
      "city": "Hyderabad",
      "district": "Hyderabad",
      "state": "Andhra Pradesh",
      "phone": null,
      "lat": 17.385,
      "lng": 78.4867,
      "pincode": "500047",
      "address": "H.No. 4-112/1, Anand Bagh, Malkajgiri, Hyderabad-500047"
    },
    {
      "name": "Advance Mother And Child Care Center",
      "type": "Hospital",
      "city": "Mohali",
      "district": "Mohali",
      "state": "Punjab",
      "phone": null,
      "lat": 30.7046,
      "lng": 76.7179,
      "pincode": "140604",
      "address": "#67, Kalgidhar Enclave, Near Shiv Mandir, Hdfc Bank, Baltana, Zirakpur, Mohali, Punjab"
    },
    {
      "name": "Advanced Neurology & Superspeciality Hospital, Jaipur",
      "type": "Hospital",
      "city": "Jaipur",
      "district": "Jaipur",
      "state": "Rajasthan",
      "phone": null,
      "lat": 26.9124,
      "lng": 75.7873,
      "pincode": "302017",
      "address": "D-358, Brain Tower, Malviyanagar, Jaipur-302017"
    },
    {
      "name": "Adventist Wockardt Heart Hospital",
      "type": "Hospital",
      "city": "Surat",
      "district": "Surat",
      "state": "Gujarat",
      "phone": null,
      "lat": 21.1702,
      "lng": 72.8311,
      "pincode": "395006",
      "address": "24 Athwalines Surat"
    },
    {
      "name": "Adyar P.M. Hospital",
      "type": "Hospital",
      "city": "Chennai",
      "district": "Chennai",
      "state": "Tamilnadu",
      "phone": null,
      "lat": 13.0827,
      "lng": 80.2707,
      "pincode": "600020",
      "address": "# 58, L.B. Road, Adyar, Chennai-600020Chennai"
    },
    {
      "name": "Aeinullah Eye Hospital",
      "type": "Hospital",
      "city": "Bangalore",
      "district": "Bangalore",
      "state": "Karnataka",
      "phone": null,
      "lat": 12.9716,
      "lng": 77.5946,
      "pincode": "560047",
      "address": "#90, Austin Town Layout, Near B.D.A Shopping Complex."
    },
    {
      "name": "Agadi Hospital & Research Centre",
      "type": "Hospital",
      "city": "Bangalore",
      "district": "Bangalore",
      "state": "Karnataka",
      "phone": null,
      "lat": 12.9716,
      "lng": 77.5946,
      "pincode": "560017",
      "address": "35, H Siddhaiah Road, Wilson Garden, Bangalore-560027Wilson Garden"
    },
    {
      "name": "Agarwal Maternity & General Hospital",
      "type": "Hospital",
      "city": "Pune",
      "district": "Pune",
      "state": "Maharashtra",
      "phone": null,
      "lat": 18.5204,
      "lng": 73.8567,
      "pincode": "411014",
      "address": "S/N.45/1,2 & 5,Sangarsh Chowk,Kharadi Road,Chandannagar,"
    },
    {
      "name": "Agarwal Medical Centre",
      "type": "Hospital",
      "city": "Delhi",
      "district": "Delhi",
      "state": "Delhi",
      "phone": null,
      "lat": 28.6139,
      "lng": 77.209,
      "pincode": "110048",
      "address": "E-234, Greater Kailash, Delhi-110048"
    },
    {
      "name": "Agarwal Nursing Home",
      "type": "Hospital",
      "city": "Kurukshetra",
      "district": "Kurukshetra",
      "state": "Haryana",
      "phone": null,
      "lat": 29.9695,
      "lng": 76.8783,
      "pincode": "136118",
      "address": "Salarpur Road, Kurukshetra, Haryana"
    },
    {
      "name": "Agarwal Nursing Home",
      "type": "Hospital",
      "city": "Mumbai",
      "district": "Mumbai",
      "state": "Maharashtra",
      "phone": null,
      "lat": 19.076,
      "lng": 72.8777,
      "pincode": "400703",
      "address": "4Th Floor,Shanti Centre, Plot # 8,Sec-17,Vashi,Navi Mumbai,Vashi, Navi Mumbai-400703"
    },
    {
      "name": "Agash Nursing Home",
      "type": "Hospital",
      "city": "Chennai",
      "district": "Chennai",
      "state": "Tamilnadu",
      "phone": null,
      "lat": 13.0827,
      "lng": 80.2707,
      "pincode": "600044",
      "address": "#234, G.S.T. Road, Chromepet"
    },
    {
      "name": "Aggarwal Eye Hospital",
      "type": "Hospital",
      "city": "Mumbai",
      "district": "Mumbai",
      "state": "Maharashtra",
      "phone": null,
      "lat": 19.076,
      "lng": 72.8777,
      "pincode": "400069",
      "address": "No.102/5,Ketayan Mansion,Shahaji Raje Marg,Koldongri,Andheri(E),Sahaje Raje Marg, Koldongri,"
    },
    {
      "name": "Aggarwal Medical Centre",
      "type": "Hospital",
      "city": "Faridabad",
      "district": "Faridabad",
      "state": "Haryana",
      "phone": null,
      "lat": 28.4089,
      "lng": 77.3178,
      "pincode": "121004",
      "address": "Jiwan Nagar, Gaunchi, Sector-55. Haryana , Faridabad"
    },
    {
      "name": "Aggarwal Nursing Home",
      "type": "Hospital",
      "city": "Delhi",
      "district": "Delhi",
      "state": "Delhi",
      "phone": null,
      "lat": 28.6139,
      "lng": 77.209,
      "pincode": "110035",
      "address": "2528/192,Tri Nagar,Tota Ram Bazar"
    },
    {
      "name": "Agile Hospital Pvt. Ltd",
      "type": "Hospital",
      "city": "Guwahati",
      "district": "Guwahati",
      "state": "Assam",
      "phone": null,
      "lat": 26.1445,
      "lng": 91.7362,
      "pincode": "781022",
      "address": "Tripura Road, Jayanagar Chariali, Guwahati, Kamrup, Assam, Opposite Sbi, Iibm Branch."
    },
    {
      "name": "Agrawal Clinic Surgical & General Hospital With Icu",
      "type": "Hospital",
      "city": "Mumbai",
      "district": "Mumbai",
      "state": "Maharashtra",
      "phone": null,
      "lat": 19.076,
      "lng": 72.8777,
      "pincode": "400097",
      "address": "49, Daftary Road, Malad (East), Mumbai, Maharashtra, Opp. Subhash Lane."
    },
    {
      "name": "Agrawal Eye Hospital",
      "type": "Hospital",
      "city": "Meerut",
      "district": "Meerut",
      "state": "Uttar Pradesh",
      "phone": null,
      "lat": 28.9845,
      "lng": 77.7064,
      "pincode": "250001",
      "address": "61 Shivaji Road Near Nas College"
    },
    {
      "name": "Agrawal Eye Hospital",
      "type": "Hospital",
      "city": "Mumbai",
      "district": "Mumbai",
      "state": "Maharashtra",
      "phone": null,
      "lat": 19.076,
      "lng": 72.8777,
      "pincode": "400064",
      "address": "1St Floor, Maharaja Apartment, Opp. Tel. Exchange, S.V. Road, Malad (West) Mumbai-400064"
    },
    {
      "name": "Agrawal Eye Institute",
      "type": "Hospital",
      "city": "Delhi",
      "district": "Delhi",
      "state": "Delhi",
      "phone": null,
      "lat": 28.6139,
      "lng": 77.209,
      "pincode": "110017",
      "address": "A-235,Shivalik,Malviya Nagar"
    },
    {
      "name": "Agrawal Hospital",
      "type": "Hospital",
      "city": "Patan",
      "district": "Patan",
      "state": "Gujarat",
      "phone": null,
      "lat": 23.8493,
      "lng": 72.1266,
      "pincode": "384265",
      "address": "5Th Lane,First Floor,Kilachand Centre,Station Road"
    },
    {
      "name": "Agrawal Hospital",
      "type": "Hospital",
      "city": "Bhopal",
      "district": "Bhopal",
      "state": "Madhya Pradesh",
      "phone": null,
      "lat": 23.2599,
      "lng": 77.4126,
      "pincode": "462016",
      "address": "E-3/15, Opp Habibganj Railway Stn, Arera Colony, Bopal,Mp-462016"
    },
    {
      "name": "Agrawal Hospital (A Unit Of Agrawal Institute Of Medical Sciences Pvt",
      "type": "Hospital",
      "city": "Raipur",
      "district": "Raipur",
      "state": "Chattisgarh",
      "phone": null,
      "lat": 21.2514,
      "lng": 81.6296,
      "pincode": "492001",
      "address": "Near Rajkumar College, G.E. Road."
    },
    {
      "name": "Agrawal Nursing Home",
      "type": "Hospital",
      "city": "Mumbai",
      "district": "Mumbai",
      "state": "Maharashtra",
      "phone": null,
      "lat": 19.076,
      "lng": 72.8777,
      "pincode": "401104",
      "address": "Bombay Market, St.Road, Bhayander West,Bhayander, Thane"
    },
    {
      "name": "Ahalia Foundation Eye Hospital",
      "type": "Hospital",
      "city": "Palakkad",
      "district": "Palakkad",
      "state": "Kerala",
      "phone": null,
      "lat": 10.7867,
      "lng": 76.6548,
      "pincode": "678557",
      "address": "1/1053, Elappully."
    },
    {
      "name": "Ahalya Nursing Home",
      "type": "Hospital",
      "city": "Guntur",
      "district": "Guntur",
      "state": "Andhra Pradesh",
      "phone": null,
      "lat": 16.3067,
      "lng": 80.4365,
      "pincode": "522002",
      "address": "Back Side Sivaayam Temple, Kothapet, Guntur, Andhra Pradesh-522002."
    },
    {
      "name": "Ahalyadevi Nursing Home",
      "type": "Hospital",
      "city": "Nellore",
      "district": "Nellore",
      "state": "Andhra Pradesh",
      "phone": null,
      "lat": 14.4426,
      "lng": 79.9865,
      "pincode": "524003",
      "address": "16-1-712, Near Nehru State, Trunk Road."
    },
    {
      "name": "Ahirkar Hospital",
      "type": "Hospital",
      "city": "Bhiwandi",
      "district": "Bhiwandi",
      "state": "Maharashtra",
      "phone": null,
      "lat": 19.3002,
      "lng": 73.0631,
      "pincode": "421302",
      "address": "Near Ratan Cinema Narpoli,Bhiwandi,Thane"
    },
    {
      "name": "Ahmed Hospital",
      "type": "Hospital",
      "city": "Gurgaon",
      "district": "Gurgaon",
      "state": "Haryana",
      "phone": null,
      "lat": 28.4595,
      "lng": 77.0266,
      "pincode": "122001",
      "address": "Sector-15,Part-2."
    },
    {
      "name": "Ahmed Hospitals",
      "type": "Hospital",
      "city": "Srinagar",
      "district": "Srinagar",
      "state": "Jammu & Kashmir",
      "phone": null,
      "lat": 34.0837,
      "lng": 74.7973,
      "pincode": "190008",
      "address": "Gulshan Nagar,Byepass,Nowgam"
    },
    {
      "name": "Ahooja Eye & Dental Institute",
      "type": "Hospital",
      "city": "Gurgaon",
      "district": "Gurgaon",
      "state": "Haryana",
      "phone": null,
      "lat": 28.4595,
      "lng": 77.0266,
      "pincode": "122001",
      "address": "560/1, Dayanand Coloney, New Railway Road"
    },
    {
      "name": "Ahuja Nursing Home & Polyclinic",
      "type": "Hospital",
      "city": "Ulhasnagar",
      "district": "Ulhasnagar",
      "state": "Maharashtra",
      "phone": null,
      "lat": 19.2183,
      "lng": 73.1637,
      "pincode": "421002",
      "address": "Furniture Bazar,Ulhas Nagar,Dass Chambers,1St Floor"
    },
    {
      "name": "Aisha Memorial Hospital (Tsunami Project Only)",
      "type": "Hospital",
      "city": "Manacaud",
      "district": "Manacaud",
      "state": "Kerala",
      "phone": null,
      "lat": 8.4875,
      "lng": 76.9525,
      "pincode": "695009",
      "address": "Paruthikuzhy, Manacaud"
    },
    {
      "name": "Ajani Hospital",
      "type": "Hospital",
      "city": "Patan",
      "district": "Patan",
      "state": "Gujarat",
      "phone": null,
      "lat": 23.8493,
      "lng": 72.1266,
      "pincode": "384151",
      "address": "Sidharaj Jaysingh Marg, Sidhpur"
    },
    {
      "name": "Ajanta Hospital & Ivf Centre Pvt Ltd",
      "type": "Hospital",
      "city": "Lucknow",
      "district": "Lucknow",
      "state": "Uttar Pradesh",
      "phone": null,
      "lat": 26.8467,
      "lng": 80.9462,
      "pincode": "226005",
      "address": "#765, Near Krishna Cinema, Kanpur Road, Alambagh."
    },
    {
      "name": "Ajay Hospital",
      "type": "Hospital",
      "city": "Meerut",
      "district": "Meerut",
      "state": "Uttar Pradesh",
      "phone": null,
      "lat": 28.9845,
      "lng": 77.7064,
      "pincode": "250004",
      "address": "Bhopal Vihar, Garh Road, (Near -Radha Govind Engineering College), Meerut, Uttar Pradesh"
    },
    {
      "name": "Ajay Medical Centre",
      "type": "Hospital",
      "city": "Chellakere",
      "district": "Chellakere",
      "state": "Karnataka",
      "phone": null,
      "lat": 14.695,
      "lng": 76.6372,
      "pincode": "577522",
      "address": "Near Bus Stand Chellakere"
    },
    {
      "name": "Ajay Pratima Hospital",
      "type": "Hospital",
      "city": "Bareilly",
      "district": "Bareilly",
      "state": "Uttar Pradesh",
      "phone": null,
      "lat": 28.367,
      "lng": 79.4304,
      "pincode": "243005",
      "address": "57, Brijlok, Near Prem Nagar Dharam Kanta Bareilly"
    },
    {
      "name": "Ajit Surgical & Maternity Home",
      "type": "Hospital",
      "city": "Belgaum",
      "district": "Belgaum",
      "state": "Karnataka",
      "phone": null,
      "lat": 15.8497,
      "lng": 74.4977,
      "pincode": "591317",
      "address": "Chikkodi Road,Raibag"
    },
    {
      "name": "Ajmer Hospital",
      "type": "Hospital",
      "city": "Ajmer",
      "district": "Ajmer",
      "state": "Rajasthan",
      "phone": null,
      "lat": 26.4499,
      "lng": 74.6399,
      "pincode": "305006",
      "address": "# 158/X,Civil Lanes, Ajmer-305006."
    },
    {
      "name": "Ajwani Eye Hospital Pvt. Ltd.",
      "type": "Hospital",
      "city": "Bhopal",
      "district": "Bhopal",
      "state": "Madhya Pradesh",
      "phone": null,
      "lat": 23.2599,
      "lng": 77.4126,
      "pincode": "462018",
      "address": "# 115, Berasia Road, Bh0Pal Sindhi Colony, Bhopal-462018"
    },
    {
      "name": "Ak Hospital",
      "type": "Hospital",
      "city": "Chennai",
      "district": "Chennai",
      "state": "Tamilnadu",
      "phone": null,
      "lat": 13.0827,
      "lng": 80.2707,
      "pincode": "600029",
      "address": "360 Poonamallee High Road,Junction Of Ph Rd &"
    },
    {
      "name": "Akanksha Maternity & Surgical Hospital",
      "type": "Hospital",
      "city": "Mumbai",
      "district": "Mumbai",
      "state": "Maharashtra",
      "phone": null,
      "lat": 19.076,
      "lng": 72.8777,
      "pincode": "400053",
      "address": "6, Manish Tower, Manish Nagar, J P Road, Ahdheri(W)J.P. Road, Andheri (W)"
    },
    {
      "name": "Akansha Orthopedic Centre",
      "type": "Hospital",
      "city": "Kota",
      "district": "Kota",
      "state": "Rajasthan",
      "phone": null,
      "lat": 25.2138,
      "lng": 75.8648,
      "pincode": "324005",
      "address": "5-A-2, Vigyan Nagar."
    },
    {
      "name": "Akar Hospital",
      "type": "Hospital",
      "city": "Rajkot",
      "district": "Rajkot",
      "state": "Gujarat",
      "phone": null,
      "lat": 22.3039,
      "lng": 70.8022,
      "pincode": "360002",
      "address": "Ramkrishna Nagar Main Road, Virani School Chowk."
    },
    {
      "name": "Akilesh Orthopaedics Hospitals",
      "type": "Hospital",
      "city": "Coimbatore",
      "district": "Coimbatore",
      "state": "Tamilnadu",
      "phone": null,
      "lat": 11.0168,
      "lng": 76.9558,
      "pincode": "641009",
      "address": "95-97, Sasthiri Road, Rammagar."
    },
    {
      "name": "Akira Eye Hospital",
      "type": "Hospital",
      "city": "Eastgodavari",
      "district": "Eastgodavari",
      "state": "Andhra Pradesh",
      "phone": null,
      "lat": 17.0,
      "lng": 82.0,
      "pincode": "533104",
      "address": "Aryapuram,Rajahmundry"
    },
    {
      "name": "Akshar Eye Hospital",
      "type": "Hospital",
      "city": "Ahmedabad",
      "district": "Ahmedabad",
      "state": "Gujarat",
      "phone": null,
      "lat": 23.0225,
      "lng": 72.5714,
      "pincode": "382340",
      "address": "Kandhari Apartment, Opp S.T. Work Shop,Patia, Naroda Road."
    },
    {
      "name": "Akshar Surgical Hospital",
      "type": "Hospital",
      "city": "Ahmedabad",
      "district": "Ahmedabad",
      "state": "Gujarat",
      "phone": null,
      "lat": 23.0225,
      "lng": 72.5714,
      "pincode": "380008",
      "address": "2Nd Floor, Vidita Avenue, Near Jayhind,Char Rasta, Maninagar."
    },
    {
      "name": "Akshardeep Orthopaedic Hospital",
      "type": "Hospital",
      "city": "Ahmedabad",
      "district": "Ahmedabad",
      "state": "Gujarat",
      "phone": null,
      "lat": 23.0225,
      "lng": 72.5714,
      "pincode": "380004",
      "address": "2Nd Floor, Shubh Complex, Near Rajasthan Hospital, Shahibaugnr. Rajasthan Hospital,"
    },
    {
      "name": "Akshare Eye Foundation",
      "type": "Hospital",
      "city": "Tumkur",
      "district": "Tumkur",
      "state": "Karnataka",
      "phone": null,
      "lat": 13.3422,
      "lng": 77.101,
      "pincode": "572102",
      "address": "#6052 Railway Station Road,Opp Town Hall"
    },
    {
      "name": "Akshay Eye Clinic",
      "type": "Hospital",
      "city": "Raigad",
      "district": "Raigad",
      "state": "Maharashtra",
      "phone": null,
      "lat": 18.5154,
      "lng": 73.1249,
      "pincode": "410206",
      "address": "#842,Mahatma Gandhi Road,Panvel"
    },
    {
      "name": "Akshay Hospital",
      "type": "Hospital",
      "city": "Korba",
      "district": "Korba",
      "state": "Chattisgarh",
      "phone": null,
      "lat": 22.3595,
      "lng": 82.7501,
      "pincode": "495681",
      "address": "M.P. Nagar,"
    },
    {
      "name": "Akshay Hospital",
      "type": "Hospital",
      "city": "Tumkur",
      "district": "Tumkur",
      "state": "Karnataka",
      "phone": null,
      "lat": 13.3422,
      "lng": 77.101,
      "pincode": "572102",
      "address": "2Nd Cross, Ashoknagar"
    },
    {
      "name": "Akshay Mallya Hospital",
      "type": "Hospital",
      "city": "Bangalore",
      "district": "Bangalore",
      "state": "Karnataka",
      "phone": null,
      "lat": 12.9716,
      "lng": 77.5946,
      "pincode": "560037",
      "address": "Varthur Main Road,Marathalli"
    },
    {
      "name": "Akshay Medical Foundation",
      "type": "Hospital",
      "city": "Pune",
      "district": "Pune",
      "state": "Maharashtra",
      "phone": null,
      "lat": 18.5204,
      "lng": 73.8567,
      "pincode": "410401",
      "address": "204/G Ward,Mg Roadlonawala"
    },
    {
      "name": "Akshaya Care Multi Speciality Hospital",
      "type": "Hospital",
      "city": "Secunderabad",
      "district": "Secunderabad",
      "state": "Andhra Pradesh",
      "phone": null,
      "lat": 17.4399,
      "lng": 78.4983,
      "pincode": "500061",
      "address": "#11-3-267/13, Near Raghava Gardens, Madhura Nagar, Srinivasanagar, Parsigutta,"
    },
    {
      "name": "Akshaya Heart Hospital",
      "type": "Hospital",
      "city": "Bhopal",
      "district": "Bhopal",
      "state": "Madhya Pradesh",
      "phone": null,
      "lat": 23.2599,
      "lng": 77.4126,
      "pincode": "462016",
      "address": "Rishi Nagar, Char Imli, Opp Ekant Park.Bhopal, Madhya Pradesh"
    },
    {
      "name": "Akshaya Nethralaya",
      "type": "Hospital",
      "city": "Bangalore",
      "district": "Bangalore",
      "state": "Karnataka",
      "phone": null,
      "lat": 12.9716,
      "lng": 77.5946,
      "pincode": "560072",
      "address": "#227/A,Vidyagiri Layout N Exit O Axis Bank Nagarbhavi Circle,Bangalore"
    },
    {
      "name": "Akshaya Nursing Home",
      "type": "Hospital",
      "city": "Kolar",
      "district": "Kolar",
      "state": "Karnataka",
      "phone": null,
      "lat": 13.136,
      "lng": 78.1294,
      "pincode": "563101",
      "address": "3Dr Cross Gowripet, Kolar"
    },
    {
      "name": "Akshayjyot Eye Hospial",
      "type": "Hospital",
      "city": "Buldana",
      "district": "Buldana",
      "state": "Maharashtra",
      "phone": null,
      "lat": 20.5321,
      "lng": 76.1839,
      "pincode": "443001",
      "address": "Yashowardhan,Mutthe Layout."
    },
    {
      "name": "Akshi Eye Care Centre",
      "type": "Hospital",
      "city": "Kanpur",
      "district": "Kanpur",
      "state": "Uttar Pradesh",
      "phone": null,
      "lat": 26.4499,
      "lng": 80.3319,
      "pincode": "200002",
      "address": "2/344-A, Azad Nagar,Kanpur-200002."
    },
    {
      "name": "Akshitha Hospitals",
      "type": "Hospital",
      "city": "Shamshabad",
      "district": "Shamshabad",
      "state": "Andhra Pradesh",
      "phone": null,
      "lat": 17.2543,
      "lng": 78.4217,
      "pincode": "501218",
      "address": "H.No.11-32/6,Mahavir Enclave Phase-Ii,Shashabad"
    },
    {
      "name": "Al Salama Eye Hospital",
      "type": "Hospital",
      "city": "Kozhicode",
      "district": "Kozhicode",
      "state": "Kerala",
      "phone": null,
      "lat": 11.2588,
      "lng": 75.7804,
      "pincode": "673004",
      "address": "Arayidathu Palam Jn By Pass Road Kozhikode"
    },
    {
      "name": "Al Salama Eye Hospital Ltd",
      "type": "Hospital",
      "city": "Malapuram",
      "district": "Malapuram",
      "state": "Kerala",
      "phone": null,
      "lat": 11.073,
      "lng": 76.074,
      "pincode": "679322",
      "address": "55/5,Hospital Road,Perinthalmanna,Malapuram"
    },
    {
      "name": "Al Shifa Hospital Pvt Ltd",
      "type": "Hospital",
      "city": "Malapuram",
      "district": "Malapuram",
      "state": "Kerala",
      "phone": null,
      "lat": 11.073,
      "lng": 76.074,
      "pincode": "679322",
      "address": "Pb No. 26, Ooty Road Perintalmannaooty Road"
    },
    {
      "name": "Al-Arif Hospital",
      "type": "Hospital",
      "city": "Trivandrum",
      "district": "Trivandrum",
      "state": "Kerala",
      "phone": null,
      "lat": 8.5241,
      "lng": 76.9366,
      "pincode": "695026",
      "address": "Tc-48/659,Ambalathara,Poonthura Post,Near Milma Diary"
    },
    {
      "name": "Alam Hospital & Research Centre",
      "type": "Hospital",
      "city": "Ranchi",
      "district": "Ranchi",
      "state": "Jharkhand",
      "phone": null,
      "lat": 23.3441,
      "lng": 85.3096,
      "pincode": "834009",
      "address": "Booty Road, Bariatu."
    },
    {
      "name": "Alapati Nursing Home",
      "type": "Hospital",
      "city": "Tenali",
      "district": "Tenali",
      "state": "Andhra Pradesh",
      "phone": null,
      "lat": 16.2429,
      "lng": 80.6401,
      "pincode": "522201",
      "address": "Gopalreddy Street, Ganganammapet."
    },
    {
      "name": "Alatkar Hospital",
      "type": "Hospital",
      "city": "Pune",
      "district": "Pune",
      "state": "Maharashtra",
      "phone": null,
      "lat": 18.5204,
      "lng": 73.8567,
      "pincode": "411028",
      "address": "Bhosale Garden,Opp 111 Bus Stop,Pune Solapur Road"
    },
    {
      "name": "Alchemist Hospitals Ltd",
      "type": "Hospital",
      "city": "Panchkula",
      "district": "Panchkula",
      "state": "Haryana",
      "phone": null,
      "lat": 30.6942,
      "lng": 76.8606,
      "pincode": "134112",
      "address": "Sector 21,Near Main Market"
    },
    {
      "name": "Alchemist Institute Of Medical Science",
      "type": "Hospital",
      "city": "Gurgaon",
      "district": "Gurgaon",
      "state": "Haryana",
      "phone": null,
      "lat": 28.4595,
      "lng": 77.0266,
      "pincode": "122001",
      "address": "Sector 53 Saraswatikunj Dlf Golf Course Road Gurgaon"
    },
    {
      "name": "Alexander Eye Centre",
      "type": "Hospital",
      "city": "Cochin",
      "district": "Cochin",
      "state": "Kerala",
      "phone": null,
      "lat": 9.9312,
      "lng": 76.2673,
      "pincode": "682024",
      "address": "34/629A,A1,B,"
    },
    {
      "name": "Alhat Nursing Home",
      "type": "Hospital",
      "city": "Pune",
      "district": "Pune",
      "state": "Maharashtra",
      "phone": null,
      "lat": 18.5204,
      "lng": 73.8567,
      "pincode": "411039",
      "address": "Hira-Ratan Plaza,Pune Nashik Highway Pmt Chowk,Bhosari"
    },
    {
      "name": "All Asia Medical Institute (A Unit Of Harsh Medical Centre Pvt Ltd).",
      "type": "Hospital",
      "city": "Kolkata",
      "district": "Kolkata",
      "state": "West Bengal",
      "phone": null,
      "lat": 22.5726,
      "lng": 88.3639,
      "pincode": "700019",
      "address": "8B Garcha First Lane"
    },
    {
      "name": "Alled Hospital Limited (Tsunami Project Only)",
      "type": "Hospital",
      "city": "Kunnamkulam",
      "district": "Kunnamkulam",
      "state": "Kerala",
      "phone": null,
      "lat": 10.65,
      "lng": 76.0836,
      "pincode": "680521",
      "address": "2/333,Guruvayoor Road,"
    },
    {
      "name": "Alliance Hospital",
      "type": "Hospital",
      "city": "Varanasi",
      "district": "Varanasi",
      "state": "Uttar Pradesh",
      "phone": null,
      "lat": 25.3176,
      "lng": 82.9739,
      "pincode": "221010",
      "address": "C-20/1-73,Ramakant Nagar Colony, Varanasi, Uttar Pradesh"
    },
    {
      "name": "Alluri Sitarama Raju Academy Of Medical Sciences",
      "type": "Hospital",
      "city": "Eluru",
      "district": "Eluru",
      "state": "Andhra Pradesh",
      "phone": null,
      "lat": 16.7107,
      "lng": 81.1003,
      "pincode": "534004",
      "address": "Malkapuram, Eluru Nh-5, Malkapuram."
    },
    {
      "name": "Almas Hospital",
      "type": "Hospital",
      "city": "Malapuram",
      "district": "Malapuram",
      "state": "Kerala",
      "phone": null,
      "lat": 11.073,
      "lng": 76.074,
      "pincode": "676503",
      "address": "Changuvetty,Kottakal,Malappuram,"
    },
    {
      "name": "Alok Hospital",
      "type": "Hospital",
      "city": "Kota",
      "district": "Kota",
      "state": "Rajasthan",
      "phone": null,
      "lat": 25.2138,
      "lng": 75.8648,
      "pincode": "324005",
      "address": "1-A-5, Sheela Choudhary Road"
    },
    {
      "name": "Alpha Ent Head And Neck Research Institute And Hospital",
      "type": "Hospital",
      "city": "Ernakulam",
      "district": "Ernakulam",
      "state": "Kerala",
      "phone": null,
      "lat": 9.9816,
      "lng": 76.2999,
      "pincode": "682017",
      "address": "Opp To Bsnl Tower,Deshabhimani Road,Kaloor,Ernakulam"
    },
    {
      "name": "Alpha Medical Services (Pvt) Ltd",
      "type": "Hospital",
      "city": "Kolkata",
      "district": "Kolkata",
      "state": "West Bengal",
      "phone": null,
      "lat": 22.5726,
      "lng": 88.3639,
      "pincode": "711101",
      "address": "21/1, Dobson Road Howrahmaulana Abul Kalam Azad Rd"
    },
    {
      "name": "Alpha Medical Services Pvt Ltd",
      "type": "Hospital",
      "city": "Kolkata",
      "district": "Kolkata",
      "state": "West Bengal",
      "phone": null,
      "lat": 22.5726,
      "lng": 88.3639,
      "pincode": "700020",
      "address": "#13, Lalalajpat Rai Sarani Elgin Road."
    },
    {
      "name": "Alpha Super Speciality Hospital",
      "type": "Hospital",
      "city": "Hyderabad",
      "district": "Hyderabad",
      "state": "Andhra Pradesh",
      "phone": null,
      "lat": 17.385,
      "lng": 78.4867,
      "pincode": "500024",
      "address": "23-1-863. Bsides Mch Swimming Pool, Moghalpura."
    },
    {
      "name": "Alphonsa Hospital",
      "type": "Hospital",
      "city": "Ernakulam",
      "district": "Ernakulam",
      "state": "Kerala",
      "phone": null,
      "lat": 9.9816,
      "lng": 76.2999,
      "pincode": "683576",
      "address": "Chruch,Karukutty"
    },
    {
      "name": "Alps Hospital (Max Hospital)",
      "type": "Hospital",
      "city": "Gurgaon",
      "district": "Gurgaon",
      "state": "Haryana",
      "phone": null,
      "lat": 28.4595,
      "lng": 77.0266,
      "pincode": "122001",
      "address": "Block B, Sushant Lok Phase-1,Next To Park Plaza Hotel"
    },
    {
      "name": "Altec Laser & Superspeciality Hospital",
      "type": "Hospital",
      "city": "Amritsar",
      "district": "Amritsar",
      "state": "Punjab",
      "phone": null,
      "lat": 31.634,
      "lng": 74.8723,
      "pincode": "143001",
      "address": "B-2 Ranjit Avenue Amritsar"
    },
    {
      "name": "Altius Healthcare Pvt Ltd",
      "type": "Hospital",
      "city": "Delhi",
      "district": "Delhi",
      "state": "Delhi",
      "phone": null,
      "lat": 28.6139,
      "lng": 77.209,
      "pincode": "110034",
      "address": "A-6, Pushpanjali Enclave,Pitampurapithampura New Delhi"
    },
    {
      "name": "Altius Healthcare Pvt Ltd",
      "type": "Hospital",
      "city": "Delhi",
      "district": "Delhi",
      "state": "Delhi",
      "phone": null,
      "lat": 28.6139,
      "lng": 77.209,
      "pincode": "110041",
      "address": "#1,Gulshan Park, Main Rohtak Road, Mangloi-110041"
    },
    {
      "name": "Alva Hospital Pvt Ltd",
      "type": "Hospital",
      "city": "Pollachi",
      "district": "Pollachi",
      "state": "Tamilnadu",
      "phone": null,
      "lat": 10.6594,
      "lng": 77.0076,
      "pincode": "642013",
      "address": "74/A2, Meenkarai Road,Pollachi Coimbatore"
    },
    {
      "name": "Amala Cancer Hospital & Research Centre",
      "type": "Hospital",
      "city": "Trichur",
      "district": "Trichur",
      "state": "Kerala",
      "phone": null,
      "lat": 10.5276,
      "lng": 76.2144,
      "pincode": "680555",
      "address": "Amalanagar, Trissur,Kerala-680555."
    },
    {
      "name": "Amar Leela Hospital (P) Ltd",
      "type": "Hospital",
      "city": "Delhi",
      "district": "Delhi",
      "state": "Delhi",
      "phone": null,
      "lat": 28.6139,
      "lng": 77.209,
      "pincode": "110058",
      "address": "B-1/6, Janak Puri,Main Najafgarh Roadmain Najafgarh Road,"
    },
    {
      "name": "Amar Medical & Research Centre",
      "type": "Hospital",
      "city": "Jaipur",
      "district": "Jaipur",
      "state": "Rajasthan",
      "phone": null,
      "lat": 26.9124,
      "lng": 75.7873,
      "pincode": "302020",
      "address": "Kiran Path,Mansarover"
    },
    {
      "name": "Amar Orthopaedic Hospital",
      "type": "Hospital",
      "city": "Guntur",
      "district": "Guntur",
      "state": "Andhra Pradesh",
      "phone": null,
      "lat": 16.3067,
      "lng": 80.4365,
      "pincode": "522001",
      "address": "13-2-12, 1St Line Gunturuvari Thota, Guntur-522001"
    },
    {
      "name": "Amaravathi Hospital",
      "type": "Hospital",
      "city": "Karur",
      "district": "Karur",
      "state": "Tamilnadu",
      "phone": null,
      "lat": 10.9601,
      "lng": 78.0766,
      "pincode": "639002",
      "address": "#74, Ramanujam Nagar, Kovai Road, Karur, Tamilnadu."
    },
    {
      "name": "Amaravathi Institute Of Medical Sciences Pvt Ltd",
      "type": "Hospital",
      "city": "Guntur",
      "district": "Guntur",
      "state": "Andhra Pradesh",
      "phone": null,
      "lat": 16.3067,
      "lng": 80.4365,
      "pincode": "522001",
      "address": "Old Club Road, Kothapeta.Oldclub Road Guntur"
    },
    {
      "name": "Amarawati Hospital",
      "type": "Hospital",
      "city": "Gurgaon",
      "district": "Gurgaon",
      "state": "Haryana",
      "phone": null,
      "lat": 28.4595,
      "lng": 77.0266,
      "pincode": "122001",
      "address": "Saraswati Enclave Near Power House, Opp. Sec. 10A, Gurgaon-122001, Haryana"
    },
    {
      "name": "Amardeep Eye Care",
      "type": "Hospital",
      "city": "Thiruvananthapuram",
      "district": "Thiruvananthapuram",
      "state": "Kerala",
      "phone": null,
      "lat": 8.5241,
      "lng": 76.9366,
      "pincode": "695005",
      "address": "Tc 5/608, Gnp.2, Nalini Vilas, Thiruvananthapuram, Kerala"
    },
    {
      "name": "Amardeep Nursing Home",
      "type": "Hospital",
      "city": "Thane",
      "district": "Thane",
      "state": "Maharashtra",
      "phone": null,
      "lat": 19.2183,
      "lng": 72.9781,
      "pincode": "400069",
      "address": "101 Ratna Tarang, Old Nagardas Road, Andheri (E)Old Nagardas Road,Andheri (E)"
    },
    {
      "name": "Ambaa Hospitals",
      "type": "Hospital",
      "city": "Hyderabad",
      "district": "Hyderabad",
      "state": "Andhra Pradesh",
      "phone": null,
      "lat": 17.385,
      "lng": 78.4867,
      "pincode": "500008",
      "address": "#9-1-29/23,Opp To Pratap Theatre,Lunger House"
    },
    {
      "name": "Ambay Hospital",
      "type": "Hospital",
      "city": "Ghaziabad",
      "district": "Ghaziabad",
      "state": "Uttar Pradesh",
      "phone": null,
      "lat": 28.6692,
      "lng": 77.4538,
      "pincode": "201005",
      "address": "1, Lajpat Nagar, Near St. Thomas School."
    },
    {
      "name": "Ambika Hospital",
      "type": "Hospital",
      "city": "Solapur",
      "district": "Solapur",
      "state": "Maharashtra",
      "phone": null,
      "lat": 17.6805,
      "lng": 75.9064,
      "pincode": "413002",
      "address": "Murarji Peth, Solapur-413002."
    },
    {
      "name": "Amee Deep Hospital",
      "type": "Hospital",
      "city": "Baroda",
      "district": "Baroda",
      "state": "Gujarat",
      "phone": null,
      "lat": 22.3072,
      "lng": 73.1812,
      "pincode": "390022",
      "address": "Gf-12, Narsinhadham Complex, Opp Sangam Bus Stop, Harni Road."
    },
    {
      "name": "American Oncology Institute (A Unit Of Cancer Treatment Services Hyderabad Pvt. Ltd.)",
      "type": "Hospital",
      "city": "Hyderabad",
      "district": "Hyderabad",
      "state": "Andhra Pradesh",
      "phone": null,
      "lat": 17.385,
      "lng": 78.4867,
      "pincode": "500084",
      "address": "No. 1-111/4/B/104, Flat No. B-104, Kondapur, Kothaguda Post, Hyderabad, Andhra Pradesh"
    },
    {
      "name": "Amijeet Maternity Hospital",
      "type": "Hospital",
      "city": "Ahmedabad",
      "district": "Ahmedabad",
      "state": "Gujarat",
      "phone": null,
      "lat": 23.0225,
      "lng": 72.5714,
      "pincode": "382481",
      "address": "A/4, Shantram Complex, Near Nirnaynagar Garnala."
    },
    {
      "name": "Amin Maternity And Nursing Home",
      "type": "Hospital",
      "city": "Ahmedabad",
      "district": "Ahmedabad",
      "state": "Gujarat",
      "phone": null,
      "lat": 23.0225,
      "lng": 72.5714,
      "pincode": "380054",
      "address": "17, Manipushp Society, Opp:Sarathi-2, B/H Goyal Intercitynr. Surdhara Circle"
    },
    {
      "name": "Amit Hospital",
      "type": "Hospital",
      "city": "Berhamapur",
      "district": "Berhamapur",
      "state": "Orissa",
      "phone": null,
      "lat": 19.3149,
      "lng": 84.7941,
      "pincode": "760001",
      "address": "Canal Street, Near Radhakrishna & Kuthari Temples Street,Berhampur"
    },
    {
      "name": "Amit Jaggi Memorial Hospital",
      "type": "Hospital",
      "city": "Agra",
      "district": "Agra",
      "state": "Uttar Pradesh",
      "phone": null,
      "lat": 27.1767,
      "lng": 78.0081,
      "pincode": "282001",
      "address": "Sector-1, Vibhav Nagar,Agra-282001."
    },
    {
      "name": "Amit Nursing Home",
      "type": "Hospital",
      "city": "Delhi",
      "district": "Delhi",
      "state": "Delhi",
      "phone": null,
      "lat": 28.6139,
      "lng": 77.209,
      "pincode": "110018",
      "address": "A-3 Manak Vihar Ext,Tihar,Tihar"
    },
    {
      "name": "Amma Children'S Hospital",
      "type": "Hospital",
      "city": "Guntur",
      "district": "Guntur",
      "state": "Andhra Pradesh",
      "phone": null,
      "lat": 16.3067,
      "lng": 80.4365,
      "pincode": "522001",
      "address": "No.137-7-109/D, Old Club Road, Gunturvari Thota, Guntur-522001"
    },
    {
      "name": "Amma Hospital",
      "type": "Hospital",
      "city": "Vijayawada",
      "district": "Vijayawada",
      "state": "Andhra Pradesh",
      "phone": null,
      "lat": 16.5062,
      "lng": 80.648,
      "pincode": "520001",
      "address": "9-64-2,Syed Gulab Street,Kothapet"
    },
    {
      "name": "Amma Hospital",
      "type": "Hospital",
      "city": "Anekal",
      "district": "Anekal",
      "state": "Karnataka",
      "phone": null,
      "lat": 12.7121,
      "lng": 77.6955,
      "pincode": "562106",
      "address": "32/515,Near Sri Rama Temple"
    },
    {
      "name": "Amma Hospital",
      "type": "Hospital",
      "city": "Chennai",
      "district": "Chennai",
      "state": "Tamilnadu",
      "phone": null,
      "lat": 13.0827,
      "lng": 80.2707,
      "pincode": "600094",
      "address": "# 1, Sowrastra Nagar7Th Street, Chennai"
    },
    {
      "name": "Amma Hospital",
      "type": "Hospital",
      "city": "Krishnagiri",
      "district": "Krishnagiri",
      "state": "Tamilnadu",
      "phone": null,
      "lat": 12.5266,
      "lng": 78.2139,
      "pincode": "635109",
      "address": "Bangalore Road, Hosur Town"
    },
    {
      "name": "Ammayi Eye Hospital",
      "type": "Hospital",
      "city": "Chennai",
      "district": "Chennai",
      "state": "Tamilnadu",
      "phone": null,
      "lat": 13.0827,
      "lng": 80.2707,
      "pincode": "600083",
      "address": "New # 80, 7Th Avenue, Ashoknagar, Chennai-600083"
    },
    {
      "name": "Amri Hospitals Ltd",
      "type": "Hospital",
      "city": "Kolkata",
      "district": "Kolkata",
      "state": "West Bengal",
      "phone": null,
      "lat": 22.5726,
      "lng": 88.3639,
      "pincode": "700098",
      "address": "Jc 16 & 17, Salt Lake City, Sector - Iii, Annexe Build. Kb 24, Salt Lake City, Sector - Iii, Kolkata"
    },
    {
      "name": "Amri Medical Center",
      "type": "Hospital",
      "city": "Kolkata",
      "district": "Kolkata",
      "state": "West Bengal",
      "phone": null,
      "lat": 22.5726,
      "lng": 88.3639,
      "pincode": "700029",
      "address": "97A, Southern Avenue, Opp To Lake Stadium, Kolkata-700029"
    },
    {
      "name": "Amrik Nethralaya",
      "type": "Hospital",
      "city": "Bangalore",
      "district": "Bangalore",
      "state": "Karnataka",
      "phone": null,
      "lat": 12.9716,
      "lng": 77.5946,
      "pincode": "560043",
      "address": "#346, Hrbr 1St Kalyan Nagar,4Th Cross, 7Th B Main."
    },
    {
      "name": "Amrit Medicare Pvt Ltd",
      "type": "Hospital",
      "city": "Chennai",
      "district": "Chennai",
      "state": "Tamilnadu",
      "phone": null,
      "lat": 13.0827,
      "lng": 80.2707,
      "pincode": "600079",
      "address": "No.310,Mint Street,Near Sowcarpet, Chennai-600079"
    },
    {
      "name": "Amritdhara Hospital Pvt Ltd",
      "type": "Hospital",
      "city": "Karnal",
      "district": "Karnal",
      "state": "Haryana",
      "phone": null,
      "lat": 29.6857,
      "lng": 76.9905,
      "pincode": "132001",
      "address": "Chaura Bazar,Near City Police Station"
    },
    {
      "name": "Amritsar Hospital",
      "type": "Hospital",
      "city": "Amritsar",
      "district": "Amritsar",
      "state": "Punjab",
      "phone": null,
      "lat": 31.634,
      "lng": 74.8723,
      "pincode": "143001",
      "address": "100 Ft Road East Mohan Nagar"
    },
    {
      "name": "Amrut Hospital & Endoscopy Clinic",
      "type": "Hospital",
      "city": "Mumbai",
      "district": "Mumbai",
      "state": "Maharashtra",
      "phone": null,
      "lat": 19.076,
      "lng": 72.8777,
      "pincode": "421201",
      "address": "Dr. Rajendra Prasad Road, Tilak Nagar, Dombivali(E), Thane, Maharashtra"
    },
    {
      "name": "Amruth Hospital",
      "type": "Hospital",
      "city": "Davangere",
      "district": "Davangere",
      "state": "Karnataka",
      "phone": null,
      "lat": 14.4644,
      "lng": 75.9218,
      "pincode": "577003",
      "address": "#1643, Opp:K.E.B.Office, Vidyarthi Bhavan, Davangere"
    },
    {
      "name": "Amrutha Heart Hospital",
      "type": "Hospital",
      "city": "Ongole",
      "district": "Ongole",
      "state": "Andhra Pradesh",
      "phone": null,
      "lat": 15.5057,
      "lng": 80.0499,
      "pincode": "523002",
      "address": "60 Feet Road Satyanarayanapuramsatyanarayanpuram"
    },
    {
      "name": "Amrutha Hospital",
      "type": "Hospital",
      "city": "Bangalore",
      "district": "Bangalore",
      "state": "Karnataka",
      "phone": null,
      "lat": 12.9716,
      "lng": 77.5946,
      "pincode": "560092",
      "address": "# 1 Near Water Tank Jakkur Main Road Amruthahalli Bangalore 560092"
    },
    {
      "name": "Amrutha Nursing Home",
      "type": "Hospital",
      "city": "Karimnagar",
      "district": "Karimnagar",
      "state": "Andhra Pradesh",
      "phone": null,
      "lat": 18.4386,
      "lng": 79.1288,
      "pincode": "505001",
      "address": "3-3-168,Savaran Street,Besides Civil Hospital,Karimnagar"
    },
    {
      "name": "Amrutha Nursing Home Private Limited",
      "type": "Hospital",
      "city": "Gajuwaka",
      "district": "Gajuwaka",
      "state": "Andhra Pradesh",
      "phone": null,
      "lat": 17.6874,
      "lng": 83.2062,
      "pincode": "530026",
      "address": "D.No.10-7-85,Kailash Nagar,Gajuwaka.Gajuwaka"
    },
    {
      "name": "Amudha Poly Clinic And Hospital",
      "type": "Hospital",
      "city": "Erode",
      "district": "Erode",
      "state": "Tamilnadu",
      "phone": null,
      "lat": 11.341,
      "lng": 77.7172,
      "pincode": "638401",
      "address": "101,Athani Road,Sathyamangalam,Erode"
    },
    {
      "name": "Amulya Jyoti Eye Foundation",
      "type": "Hospital",
      "city": "Kolkata",
      "district": "Kolkata",
      "state": "West Bengal",
      "phone": null,
      "lat": 22.5726,
      "lng": 88.3639,
      "pincode": "700029",
      "address": "#105,Manoharpukur Road,"
    },
    {
      "name": "Amulya Nursing Home",
      "type": "Hospital",
      "city": "Guntur",
      "district": "Guntur",
      "state": "Andhra Pradesh",
      "phone": null,
      "lat": 16.3067,
      "lng": 80.4365,
      "pincode": "522601",
      "address": "Guntur Road, Narasaraopet."
    },
    {
      "name": "Anadiyil Hospital",
      "type": "Hospital",
      "city": "Trivandrum",
      "district": "Trivandrum",
      "state": "Kerala",
      "phone": null,
      "lat": 8.5241,
      "lng": 76.9366,
      "pincode": "695037",
      "address": "Thekkummood Junction, Trivandrm."
    },
    {
      "name": "Anamay Eye Hospital",
      "type": "Hospital",
      "city": "Ahmedabad",
      "district": "Ahmedabad",
      "state": "Gujarat",
      "phone": null,
      "lat": 23.0225,
      "lng": 72.5714,
      "pincode": "380009",
      "address": "Off.C.G.Road Nr President Hotel Opp. Mahalya Builldingnavrangpura"
    },
    {
      "name": "Anamaya Nursing Home",
      "type": "Hospital",
      "city": "Pune",
      "district": "Pune",
      "state": "Maharashtra",
      "phone": null,
      "lat": 18.5204,
      "lng": 73.8567,
      "pincode": "411048",
      "address": "Sn48/1B/5-Gokulnagar,Katraj Kondhwa Road,Kondhawa Budruk"
    },
    {
      "name": "Anand Eye Institute Private Limited",
      "type": "Hospital",
      "city": "Hyderabad",
      "district": "Hyderabad",
      "state": "Andhra Pradesh",
      "phone": null,
      "lat": 17.385,
      "lng": 78.4867,
      "pincode": "500017",
      "address": "4Th Floor,Rata Tycoon,Tarnaka"
    },
    {
      "name": "Anand Health Care Ltd",
      "type": "Hospital",
      "city": "Delhi",
      "district": "Delhi",
      "state": "Delhi",
      "phone": null,
      "lat": 28.6139,
      "lng": 77.209,
      "pincode": "110092",
      "address": "21,Community Centre, Preet Viharpreet Vihar"
    },
    {
      "name": "Anand Hospital",
      "type": "Hospital",
      "city": "Delhi",
      "district": "Delhi",
      "state": "Delhi",
      "phone": null,
      "lat": 28.6139,
      "lng": 77.209,
      "pincode": "110018",
      "address": "B-52, New Krishna Park, Dholi Piao, Vikas Puri."
    },
    {
      "name": "Anand Hospital",
      "type": "Hospital",
      "city": "Allahabad",
      "district": "Allahabad",
      "state": "Uttar Pradesh",
      "phone": null,
      "lat": 25.4358,
      "lng": 81.8463,
      "pincode": "211001",
      "address": "11/17 Kasturba Gandhi Marg , Up, Allahabad Muir Road"
    },
    {
      "name": "Anand Hospital",
      "type": "Hospital",
      "city": "Chennai",
      "district": "Chennai",
      "state": "Tamilnadu",
      "phone": null,
      "lat": 13.0827,
      "lng": 80.2707,
      "pincode": "600068",
      "address": "201, Kamaraj Salai,Manali,Chennaimanali"
    },
    {
      "name": "Anand Hospital",
      "type": "Hospital",
      "city": "Jamkhed",
      "district": "Jamkhed",
      "state": "Maharashtra",
      "phone": null,
      "lat": 18.7215,
      "lng": 75.3275,
      "pincode": "413201",
      "address": "Nagar Road, Near S.T Stand,Ahemdnagar"
    },
    {
      "name": "Anand Hospital",
      "type": "Hospital",
      "city": "Pune",
      "district": "Pune",
      "state": "Maharashtra",
      "phone": null,
      "lat": 18.5204,
      "lng": 73.8567,
      "pincode": "411058",
      "address": "Shrikrishnapalace,Sn 136,Near Malwadi Police Station Warje,Malwadi"
    },
    {
      "name": "Anand Hospital",
      "type": "Hospital",
      "city": "Pune",
      "district": "Pune",
      "state": "Maharashtra",
      "phone": null,
      "lat": 18.5204,
      "lng": 73.8567,
      "pincode": "410501",
      "address": "Balaji Tower,Mahatma Phule Chowke,Chakan"
    },
    {
      "name": "Anand Hospital",
      "type": "Hospital",
      "city": "Pune",
      "district": "Pune",
      "state": "Maharashtra",
      "phone": null,
      "lat": 18.5204,
      "lng": 73.8567,
      "pincode": "411044",
      "address": "Sector-26,Plot 113, Hutatma Chowk Pradhikaran, Nigdi Pune-411044"
    },
    {
      "name": "Anand Hospital & Eye Centre",
      "type": "Hospital",
      "city": "Jaipur",
      "district": "Jaipur",
      "state": "Rajasthan",
      "phone": null,
      "lat": 26.9124,
      "lng": 75.7873,
      "pincode": "302001",
      "address": "21, Bharat Mata Lane, Jamna Lal Bajaj Marg, C-Scheme, Jaipur-302001"
    },
    {
      "name": "Anand Hospital & Navdeep Eye Centre",
      "type": "Hospital",
      "city": "Panipat",
      "district": "Panipat",
      "state": "Haryana",
      "phone": null,
      "lat": 29.3909,
      "lng": 76.9635,
      "pincode": "132103",
      "address": "No.105,Adarsh Nagar Near Head Post Office,"
    },
    {
      "name": "Anand Hospital & Research Centre Pvt Ltd",
      "type": "Hospital",
      "city": "Indore",
      "district": "Indore",
      "state": "Madhya Pradesh",
      "phone": null,
      "lat": 22.7196,
      "lng": 75.8577,
      "pincode": "452001",
      "address": "7, Sindhu Nagar, Bhanwarkua Main Road"
    },
    {
      "name": "Anand Hospital (Multispeciality)",
      "type": "Hospital",
      "city": "Azamgarh",
      "district": "Azamgarh",
      "state": "Uttar Pradesh",
      "phone": null,
      "lat": 26.0669,
      "lng": 83.1862,
      "pincode": "276001",
      "address": "Mukeriganj, Azamgarh, Uttar Pradesh"
    },
    {
      "name": "Anand Hospitals",
      "type": "Hospital",
      "city": "Tiruppur",
      "district": "Tiruppur",
      "state": "Tamilnadu",
      "phone": null,
      "lat": 11.1085,
      "lng": 77.3411,
      "pincode": "641602",
      "address": "#97/54,Jg Nagar,2Nd Street,60 Feet Road,"
    },
    {
      "name": "Anand Maternity & Nursing Home",
      "type": "Hospital",
      "city": "Mumbai",
      "district": "Mumbai",
      "state": "Maharashtra",
      "phone": null,
      "lat": 19.076,
      "lng": 72.8777,
      "pincode": "400068",
      "address": "Saregram Complex, New Link Rd,Dahison (E), Mumbai-400068."
    },
    {
      "name": "Anand Medical Centre",
      "type": "Hospital",
      "city": "Gurgaon",
      "district": "Gurgaon",
      "state": "Haryana",
      "phone": null,
      "lat": 28.4595,
      "lng": 77.0266,
      "pincode": "122002",
      "address": "# 171, Sector 56, Near Kendriya Vihar"
    },
    {
      "name": "Anand Medical Foundation Subudh Hospital",
      "type": "Hospital",
      "city": "Pune",
      "district": "Pune",
      "state": "Maharashtra",
      "phone": null,
      "lat": 18.5204,
      "lng": 73.8567,
      "pincode": "411038",
      "address": "145,Kothrod Near Shivaji Statue"
    },
    {
      "name": "Anand Multispeciality Hospital",
      "type": "Hospital",
      "city": "Ahmedabad",
      "district": "Ahmedabad",
      "state": "Gujarat",
      "phone": null,
      "lat": 23.0225,
      "lng": 72.5714,
      "pincode": "380004",
      "address": "Shubh Complex, Shahibuy, Near Rajsthan Hosptial."
    },
    {
      "name": "Anand Multispeciality Hospital",
      "type": "Hospital",
      "city": "Ahmedabad",
      "district": "Ahmedabad",
      "state": "Gujarat",
      "phone": null,
      "lat": 23.0225,
      "lng": 72.5714,
      "pincode": "382350",
      "address": "N.H.8,Hirawati"
    },
    {
      "name": "Anand Nirogdham Hospital Pvt Ltd",
      "type": "Hospital",
      "city": "Meerut",
      "district": "Meerut",
      "state": "Uttar Pradesh",
      "phone": null,
      "lat": 28.9845,
      "lng": 77.7064,
      "pincode": "250004",
      "address": "#A,1 Damodar Colony,Garh Road,"
    },
    {
      "name": "Anand Nursing Home",
      "type": "Hospital",
      "city": "Ghaziabad",
      "district": "Ghaziabad",
      "state": "Uttar Pradesh",
      "phone": null,
      "lat": 28.6692,
      "lng": 77.4538,
      "pincode": "201002",
      "address": "Kf-113, New Kavi Nagar."
    },
    {
      "name": "Anand Nursing Home",
      "type": "Hospital",
      "city": "Kolhapur",
      "district": "Kolhapur",
      "state": "Maharashtra",
      "phone": null,
      "lat": 16.705,
      "lng": 74.2433,
      "pincode": "416012",
      "address": "#1758 B/1, Sakoli Corner, K Ward."
    },
    {
      "name": "Anand Nursing Home",
      "type": "Hospital",
      "city": "Mumbai",
      "district": "Mumbai",
      "state": "Maharashtra",
      "phone": null,
      "lat": 19.076,
      "lng": 72.8777,
      "pincode": "400067",
      "address": "Divya Sarjan, 1St Floor, 90 Ft Road, Ganesh Chowk,Charkop,Kandivali West"
    },
    {
      "name": "Anand Surgical Hospital Ltd.",
      "type": "Hospital",
      "city": "Ahmedabad",
      "district": "Ahmedabad",
      "state": "Gujarat",
      "phone": null,
      "lat": 23.0225,
      "lng": 72.5714,
      "pincode": "382345",
      "address": "5, Janta Chambers, Nr,Saijpur Towernr. Saijpur Tower"
    },
    {
      "name": "Anandaloke Hospital & Neurosciences Centre",
      "type": "Hospital",
      "city": "Siliguri",
      "district": "Siliguri",
      "state": "West Bengal",
      "phone": null,
      "lat": 26.7271,
      "lng": 88.3953,
      "pincode": "734001",
      "address": "2Nd Mile,Sevoke Road,"
    },
    {
      "name": "Anande Hospital",
      "type": "Hospital",
      "city": "Pune",
      "district": "Pune",
      "state": "Maharashtra",
      "phone": null,
      "lat": 18.5204,
      "lng": 73.8567,
      "pincode": "442402",
      "address": "Near Old R T O Office,Ramnagar, Chandrapur,Near Old R.T.O. Office."
    },
    {
      "name": "Anandlok Hospital",
      "type": "Hospital",
      "city": "Kolkata",
      "district": "Kolkata",
      "state": "West Bengal",
      "phone": null,
      "lat": 22.5726,
      "lng": 88.3639,
      "pincode": "700091",
      "address": "Dk-713,Salt Lake City, Sector-Ii, Kolkata."
    },
    {
      "name": "Anandpara Surgical & General Hospital",
      "type": "Hospital",
      "city": "Mumbai",
      "district": "Mumbai",
      "state": "Maharashtra",
      "phone": null,
      "lat": 19.076,
      "lng": 72.8777,
      "pincode": "400097",
      "address": "Iqbal House, Rani Sati Marg Off.Pandit Socicitor Lane, Malad (East)Malad (E), Mumbai - 97"
    },
    {
      "name": "Anandrishiji Hospital & Medical Research Centre",
      "type": "Hospital",
      "city": "Ahmednagar",
      "district": "Ahmednagar",
      "state": "Maharashtra",
      "phone": null,
      "lat": 19.0948,
      "lng": 74.748,
      "pincode": "414001",
      "address": "124, Anand Rishiji Marg"
    },
    {
      "name": "Anant Nursing Home Pvt Ltd",
      "type": "Hospital",
      "city": "Jabalpur",
      "district": "Jabalpur",
      "state": "Madhya Pradesh",
      "phone": null,
      "lat": 23.1815,
      "lng": 79.9864,
      "pincode": "482001",
      "address": "Madan Mahal Station Road,Gate #3,Wright Town"
    },
    {
      "name": "Anant Shree Hospital",
      "type": "Hospital",
      "city": "Bhopal",
      "district": "Bhopal",
      "state": "Madhya Pradesh",
      "phone": null,
      "lat": 23.2599,
      "lng": 77.4126,
      "pincode": "462021",
      "address": "Indrapuri A- Sector, Opp. Bhel Gate # 1,Indrapuri"
    },
    {
      "name": "Anantha Lakshmi Kidney & Multispeciality Hospital",
      "type": "Hospital",
      "city": "Hyderabad",
      "district": "Hyderabad",
      "state": "Andhra Pradesh",
      "phone": null,
      "lat": 17.385,
      "lng": 78.4867,
      "pincode": "500013",
      "address": "H.No.3-9-10/4, Opp To Ramanathapur School, Ramanathapur, Hyderabad-500013"
    },
    {
      "name": "Ananthapuri Hospital & Research Institute",
      "type": "Hospital",
      "city": "Trivandrum",
      "district": "Trivandrum",
      "state": "Kerala",
      "phone": null,
      "lat": 8.5241,
      "lng": 76.9366,
      "pincode": "695024",
      "address": "Tc 31/1424, Nh By Pass Road,Chacka ,Thirvvananthapuram,Kerala"
    },
    {
      "name": "Ananya Hospital Pvt Ltd",
      "type": "Hospital",
      "city": "Bangalore",
      "district": "Bangalore",
      "state": "Karnataka",
      "phone": null,
      "lat": 12.9716,
      "lng": 77.5946,
      "pincode": "560010",
      "address": "389/44, 19Th Main,Rajajinagarrajajinagar"
    },